Id,NAME,ADDRESS,CITY,STATE,ZIP,LAT,LON,PHONE,REVENUE,UTILIZATION,PHONE_VERIFIED
ef58ea08d88339578300150554edc8fb,HEALTHALLIANCE HOSPITALS INC,60 HOSPITAL ROAD,LEOMINSTER,MA,1453,42.520838,71.770876,9784662000,"$1,98,002.28",1557,9784662000
69176529fd1f3b3fabcea0a3626769eb,MOUNT AUBURN HOSPITAL,330 MOUNT AUBURN STREET,CAMBRIDGE,MA,2138,42.375967,71.118275,6174923500,"$2,88,569.17",2296,6174923500
5e765f2be90838889fc7df2cb87beb58,STURDY MEMORIAL HOSPITAL,211 PARK STREET,ATTLEBORO,MA,2703,41.931653,71.294503,5082225200,"$2,87,355.03",2287,5082225200
f1fbcbfbfcfa3bd2b7f4df20f1b3c3a4,LAWRENCE GENERAL HOSPITAL,ONE GENERAL STREET,LAWRENCE,MA,1842,42.700273,71.161357,9786834000,"$1,63,386.98",1327,9786834000
e002090d4e92300eb41e7d1f21dee4c6,CAMBRIDGE HEALTH ALLIANCE,1493 CAMBRIDGE STREET,CAMBRIDGE,MA,2138,42.375967,71.118275,6176652300,"$4,06,053.19",3199,6176652300
ef6ab57ced943dbe9861812d515918b3,CAPE COD HOSPITAL,88 LEWIS BAY ROAD,HYANNIS,MA,2601,41.748854,70.740536,5087711800,"$2,26,779.11",1800,5087711800
49318f80bd8b3fc7a096ac43088b0c12,COOLEY DICKINSON HOSPITAL INC,30 LOCUST STREET,NORTHAMPTON,MA,1060,42.327044,72.67463,4135822000,"$2,07,766.77",1641,4135822000
fbf6180eb8003ebeb91d93d0288c400e,BAYSTATE FRANKLIN MEDICAL CENTER,164 HIGH STREET,GREENFIELD,MA,1301,42.614671,72.597063,4137730211,"$1,37,761.90",1098,4137730211
8b58cdd13d7931268fe0da2c54d6805c,CARNEY HOSPITAL,2100 DORCHESTER AVENUE,BOSTON,MA,2124,42.33196,71.020173,6175062000,"$47,143.40",369,6175062000
4bdaa4c2c6643089aee27137abbad27f,HARRINGTON MEMORIAL HOSPITAL,100 SOUTH STREET,SOUTHBRIDGE,MA,1550,42.059669,72.03404,5087659771,"$1,79,609.83",1413,5087659771
ecc516210af33b35ac3e8b1e34022e92,SAINT ANNE'S HOSPITAL,795 MIDDLE STREET,FALL RIVER,MA,2721,41.725351,71.094162,5086745600,"$2,82,214.42",2225,5086745600
5d4b9df193ae3bc9b68003249990e558,HOLYOKE MEDICAL CENTER,575 BEECH STREET,HOLYOKE,MA,1040,42.211656,72.642448,4135342500,"$3,27,601.37",2585,4135342500
37b4d73f652d3033a16ed97b9e8b4cda,ANNA JAQUES HOSPITAL,25 HIGHLAND AVENUE,NEWBURYPORT,MA,1950,42.812141,70.886646,9784631000,"$1,08,494.28",868,9784631000
5844ad77f6533c2bb7dde97576ab3b03,BAYSTATE WING HOSPITAL AND MEDICAL CENTERS,40 WRIGHT STREET,PALMER,MA,1069,42.187794,72.308469,4132837651,"$1,36,237.92",1077,4132837651
08bcda9cf8c8324482d4fc306a7a55d3,BOSTON MEDICAL CENTER CORPORATION,1 BOSTON MEDICAL CENTER PLACE,BOSTON,MA,2118,42.33196,71.020173,6176388000,"$10,720.28",84,6176388000
37c0de84bcaf362482bfa89b2ac441b8,BEVERLY HOSPITAL CORPORATION,85 HERRICK STREET,BEVERLY,MA,1915,42.556659,70.84496,9789223000,"$1,53,829.53",1222,9789223000
4861d01f019c3daca1538334e50919f9,NORTH SHORE MEDICAL CENTER,81 HIGHLAND AVENUE,SALEM,MA,1970,42.50128,70.897502,9787411215,"$2,02,703.56",1616,9787411215
a0b6ec0ce5873b2abf9f248849f29ee5,ST ELIZABETH'S MEDICAL CENTER,736 CAMBRIDGE STREET,BRIGHTON,MA,2135,42.33196,71.020173,6177893000,"$22,215.52",184,6177893000
4f3a530ea2f73de09a09c0a70a9ab894,BERKSHIRE MEDICAL CENTER INC,725 NORTH STREET,PITTSFIELD,MA,1201,42.452045,73.26054,4134472000,"$2,08,696.59",1643,4134472000
f71ce1a9cca732959a1ec88ac3479b6f,MARLBOROUGH HOSPITAL,157 UNION STREET,MARLBOROUGH,MA,1752,42.349617,71.547214,5084815000,"$1,63,103.08",1299,5084815000
c44f361c2efb30508f970354a12e2920,SIGNATURE HEALTHCARE BROCKTON HOSPITAL,680 CENTER STREET,BROCKTON,MA,2302,42.082543,71.024638,5089417000,"$1,66,823.02",1314,5089417000
331f4c11d298308baaa1d7825b29b57f,CLINTON HOSPITAL ASSOCIATION,201 HIGHLAND STREET,CLINTON,MA,1510,42.411887,71.690005,9783683000,"$82,739.89",655,9783683000
b1ddf8121fdd3adfb1d532cc8bd07ebb,BETH ISRAEL DEACONESS HOSPITAL PLYMOUTH,275 SANDWICH STREET,PLYMOUTH,MA,2360,41.897892,70.62403,5087462000,"$1,41,636.85",1136,5087462000
6be05ccfef94341fa2a31cf9bfde1b18,ADCARE HOSPITAL OF WORCESTER INC,107 LINCOLN STREET,WORCESTER,MA,1605,42.269478,71.807783,5087999000,"$35,648.16",279,5087999000
b0e04623b02c3f8b92ea943fc4db60da,LOWELL GENERAL HOSPITAL,295 VARNUM AVENUE,LOWELL,MA,1854,42.638893,71.322107,9789376000,"$2,24,531.45",1811,9789376000
ebc3f5c4670034af832385621c313726,NOBLE HOSPITAL,115 WEST SILVER STREET,WESTFIELD,MA,1085,42.138838,72.755911,4135682811,"$1,25,362.69",1006,4135682811
fd328395ab1d35c6a2d0d05a9a79cf11,MERCY MEDICAL CTR,271 CAREW STREET,SPRINGFIELD,MA,1104,42.115454,72.539978,4137489000,"$1,03,457.16",821,4137489000
d692e283083332018e554f868a9c0736,HALLMARK HEALTH SYSTEM,585 LEBANON STREET,MELROSE,MA,2176,42.455723,71.059019,7819793000,"$5,61,587.35",4466,7819793000
d78e84ec30aa3bbaa33af29a3a454662,MASSACHUSETTS GENERAL HOSPITAL,55 FRUIT STREET,BOSTON,MA,2114,42.33196,71.020173,6177262000,"$57,734.52",455,6177262000
8ad64ecfc8173753bee7006a8e662e06,MORTON HOSPITAL,88 WASHINGTON STREET,TAUNTON,MA,2780,41.903323,71.094984,5088287000,"$2,10,659.72",1682,5088287000
23834663ed533da9b330d6e1ecb8428e,SOUTHCOAST HOSPITAL GROUP INC,363 HIGHLAND AVENUE,FALL RIVER,MA,2720,41.725351,71.094162,5086793131,"$2,22,412.59",1832,5086793131
44bef9d391c2300593e0ccf436348ff0,MASSACHUSETTS EYE AND EAR INFIRMARY,243 CHARLES STREET,BOSTON,MA,2114,42.33196,71.020173,6175237900,"$32,806.64",262,6175237900
60457c13adb2341582c586ab5dab5f93,BAYSTATE MEDICAL CENTER,759 CHESTNUT STREET,SPRINGFIELD,MA,1199,42.115454,72.539978,4137940000,"$63,494.93",517,4137940000
a9f20dc151473789bcefbbecb41c5983,HOLY FAMILY HOSPITAL,70 EAST STREET,METHUEN,MA,1844,42.742751,71.178588,9786870156,"$40,892.05",325,9786870156
7fb5653186bd3e4a86194df9942da309,BETH ISRAEL DEACONESS HOSPITAL NEEDHAM,148 CHESTNUT STREET,NEEDHAM,MA,2494,42.281593,71.242414,7814533002,"$1,46,105.78",1162,7814533002
03347b4d994e302b848b58019a4e274d,EMERSON HOSPITAL,133 OLD ROAD TO 9 ACRE CORNER,W CONCORD,MA,1742,42.269478,71.807783,9783691400,"$43,346.09",347,9783691400
cb6a50e0af76375899ad3200ede03fff,BETH ISRAEL DEACONESS MEDICAL CENTER,330 BROOKLINE AVENUE,BOSTON,MA,2215,42.33196,71.020173,6176677000,"$15,757.52",123,6176677000
9a7149fa49fc3c87b935d29c55808717,NEW ENGLAND BAPTIST HOSPITAL,125 PARKER HILL AVENUE,BOSTON,MA,2120,42.33196,71.020173,6177545800,"$33,064.96",258,6177545800
24cb4eab61663530bddca5a8a14a4fc1,MILFORD REGIONAL MEDICAL CENTER,14 PROSPECT STREET,MILFORD,MA,1757,42.158692,71.521419,5084731190,"$3,36,022.50",2665,5084731190
e44f438a601b30fb85ebbfaf8ddcb5ad,HEYWOOD HOSPITAL,242 GREEN STREET,GARDNER,MA,1440,42.586516,71.988062,9786323420,"$1,72,945.00",1376,9786323420
ac8356a578f83a638a1e59e832fd54e7,NASHOBA VALLEY MEDICAL CENTER,200 GROTON ROAD,AYER,MA,1432,42.562221,71.584844,9787849000,"$58,638.64",462,9787849000
db0acede4abe3c018d035c68a190d8c7,SOUTH SHORE HOSPITAL,55 FOGG ROAD,SOUTH WEYMOUTH,MA,2190,42.241589,71.082651,7813408000,"$1,71,859.90",1400,7813408000
3d10019fc88e3de599166107b9c0263d,NEWTONWELLESLEY HOSPITAL,2014 WASHINGTON STREET,NEWTON,MA,2462,42.331876,71.208402,6172436000,"$3,34,472.49",2658,6172436000
f4e7709c02f637caaeea8247d74e88e7,WINCHESTER HOSPITAL,41 HIGHLAND AVENUE,WINCHESTER,MA,1890,42.452752,71.144319,7817299000,"$1,51,246.36",1194,7817299000
12c9daf5a29c36c9ac5528972463e566,BETH ISRAEL DEACONESS HOSPITALMILTON INC,199 REEDSDALE ROAD,MILTON,MA,2186,42.241589,71.082651,6176964600,"$2,53,308.58",1999,6176964600
27379046608b32f09df78c833cf5d11d,BRIGHAM AND WOMEN'S HOSPITAL,75 FRANCIS STREET,BOSTON,MA,2115,42.33196,71.020173,6177325500,"$36,164.80",281,6177325500
226098a26a403588b5bbdb56c3a30a04,GOOD SAMARITAN MEDICAL CENTER,235 NORTH PEARL STREET,BROCKTON,MA,2301,42.082543,71.024638,5084273000,"$1,37,684.41",1100,5084273000
b7175ab4bde53848891b579bccb77c7c,TUFTS MEDICAL CENTER,800 WASHINGTON STREET,BOSTON,MA,2111,42.33196,71.020173,6176365000,"$20,226.45",172,6176365000
d733d4a9080d3593b9102366e652b7ea,BRIGHAM AND WOMEN'S FAULKNER HOSPITAL,1153 CENTRE STREET,BOSTON,MA,2130,42.33196,71.020173,6179837000,"$34,227.40",270,6179837000
3bd5eda016da3ba585004dfd6ae118b8,NORWOOD HOSPITAL,800 WASHINGTON STREET,NORWOOD,MA,2062,42.18736,71.195955,5087721000,"$3,90,476.50",3083,5087721000
d51178225756389d9547891a372d580f,FALMOUTH HOSPITAL,67 & 100 TER HEUN DRIVE,FALMOUTH,MA,2540,41.57072,70.556682,5085485300,"$2,15,283.45",1728,5085485300
f99c74cc7d1a3f959a334a9357bf2f2a,UMASS MEMORIAL MEDICAL CENTER INC,55 LAKE AVENUE NORTH,WORCESTER,MA,1655,42.269478,71.807783,5083341000,"$74,912.80",590,5083341000
6f122869a8563d658db9099bf4f5bbb8,LAHEY HOSPITAL & MEDICAL CENTER BURLINGTON,41 & 45 MALL ROAD,BURLINGTON,MA,1803,42.503227,71.201713,7817445100,"$2,74,490.82",2159,7817445100
465de31f3098365caf7048a071e1f5aa,METROWEST MEDICAL CENTER,115 LINCOLN STREET,FRAMINGHAM,MA,1701,42.307905,71.436196,5083831000,"$2,21,767.72",1760,5083831000
1eaf97fa9de638dea9c46efe5dc574be,ST VINCENT HOSPITAL,123 SUMMER STREET,WORCESTER,MA,1608,42.269478,71.807783,5083635000,"$51,276.52",409,5083635000
80e919ccdf1a3838b75e541564a286e5,NANTUCKET COTTAGE HOSPITAL,57 PROSPECT STREET,NANTUCKET,MA,2554,41.293416,70.102169,5082281200,"$1,97,613.84",1636,5082281200
8e00f5243a5f313e9542378dfc61193f,MARTHA'S VINEYARD HOSPITAL INC,ONE HOSPITAL ROAD  FIRST FL  WING 5   PO BOX 1477,OAK BLUFFS,MA,2557,41.45716,70.556101,5086930410,"$16,403.32",130,5086930410
56e0b3b34fac37768fc97b465eb2fc17,FAIRVIEW HOSPITAL,29 LEWIS AVENUE,GREAT BARRINGTON,MA,1230,42.19397,73.361473,4135280790,"$32,419.16",258,4135280790
161a799c489436f68ca72a71c8107f79,ATHOL MEMORIAL HOSPITAL,2033 MAIN STREET,ATHOL,MA,1331,42.593384,72.230228,9782493511,"$23,584.61",191,9782493511
956ccb85bea030f9af4852f5dd95ff72,FRANCISCAN CHILDREN'S HOSPITAL & REHAB CENTER,30 WARREN STREET,BRIGHTON,MA,2135,42.33196,71.020173,6172543800,"$51,354.01",413,6172543800
d7b1182725f2350bbcd8939fc59851b0,BOSTON CHILDREN'S HOSPITAL,300 LONGWOOD AVENUE,BOSTON,MA,2115,42.33196,71.020173,6177356000,"$51,793.16",406,6177356000
5103c9400c08392f95cd446e0cea042a,SHRINERS' HOSPITAL FOR CHILDREN,516 CAREW STREET,SPRINGFIELD,MA,1104,42.115454,72.539978,4137872000,"$57,269.52",457,4137872000
ff9863d33fa33861900ef00148f5d9c2,SHRINERS' HOSPITAL FOR CHILDREN BOSTON,51 BLOSSOM STREET,BOSTON,MA,2114,42.33196,71.020173,6177223000,"$34,098.06",283,6177223000
72a10c1aee7c3a0197b133f63244c13e,EDITH NOURSE ROGERS MEMORIAL VETERANS HOSPITAL (BEDFORD VA),200 Springs Rd.,BEDFORD,MA,1730,42.503376,71.272644,7816872000,"$24,101.25",189,7816872000
1bd44727a8e3322d9c14a5c529d6ce6d,VA BOSTON HEALTHCARE SYSTEM BROCKTON CAMPUS,940 Belmont Street,BROCKTON,MA,2301,42.065655,71.05398,5085834500,"$8,214.57",65,5085834500
be4c63f38d383fa9a18362045b5c85f6,VA BOSTON HEALTHCARE SYSTEM JAMAICA PLAIN CAMPUS,150 South Huntington Avenue,JAMAICA PLAIN,MA,2130,42.32809,71.11076,6172329500,"$5,95,246.77",4828,6172329500
ae67223f808e33d3a83e066deebf35ed,VA CENTRAL WESTERN MASSACHUSETTS HEALTHCARE SYSTEM,421 North Main Street,LEEDS,MA,1053,42.345066,72.68291,4135844040,"$17,436.60",136,4135844040
05462bf225d43ecdafdfbb3e1140929a,CAUSEWAY OPC,251 Causeway St.,BOSTON,MA,2114,42.3665,71.05931,8008653384,"$18,599.04",145,8008653384
5573d6f9681b3f8f92642da0fec29b1e,LOWELL VETERANS COMMUNITY CARE CENTER,130 Marshall Road,LOWELL,MA,1852,42.62101,71.31481,9786719000,"$3,358.16",27,9786719000
5259a506b80b3ed59c3083188eabf33e,FITCHBURG OUTPATIENT CLINIC,881 Main Street,FITCHBURG,MA,1420,42.586487,71.80521,9783429781,"$75,816.92",590,9783429781
53b25c4be95f3dd18e69d427cdd83631,FRAMINGHAM OUTPATIENT CLINIC,61 Lincoln Street  Suite 112,FRAMINGHAM,MA,1702,42.28348,71.41845,8008653384,"$81,499.96",636,8008653384
f95eebbf70d7385e8e4c748c79c6d644,GLOUCESTER COMMUNITY BASED OUTPATIENT CLINIC (CBOC),199 Main Street,GLOUCESTER,MA,1930,42.613102,70.66085,8008386331,"$31,773.36",248,8008386331
e0c85f99d5203f268dcdcfbf172afc5a,HAVERHILL COMMUNITY BASED OUTPATIENT CLINIC (CBOC),108 Merrimack St.,HAVERHILL,MA,1830,42.77449,71.07901,8008386331,"$71,038.00",553,8008386331
ed1460549dd53f0b83dfd29d983039c3,HYANNIS OUTPATIENT CLINIC,233 Stevens St,HYANNIS,MA,2601,41.651745,70.294235,5087713190,"$83,101.40",664,5087713190
3490b118b33a38e3b763f6f8f0039d6b,LOWELL OUTPATIENT CLINIC,130 Marshall Road,LOWELL,MA,1852,42.62101,71.31481,8008653384,"$32,935.80",256,8008653384
8881e3eee91531b3867f8e2fbe41e887,LYNN COMMUNITY BASED OUTPATIENT CLINIC (CBOC),225 Boston Road  Suite 107,LYNN,MA,1904,42.470093,70.95994,8008386331,"$15,628.36",121,8008386331
0b78995f8b4534d3969dafcc456bb1c7,NEW BEDFORD OUTPATIENT CLINIC,175 Elm Street,NEW BEDFORD,MA,2740,41.635937,70.92991,5089940217,"$33,452.44",260,5089940217
cb72194ab1fd3089afb6cb8bb61f4f9c,PLYMOUTH OUTREACH CLINIC,116 Long Pond Road,PLYMOUTH,MA,2360,41.924313,70.656654,8008653384,"$23,377.96",182,8008653384
18f774abdb0137ba95c444c4eab47089,QUINCY OUTPATIENT CLINIC,110 West Squantum Street,QUINCY,MA,2169,42.272617,71.03133,8008653384,"$60,963.52",473,8008653384
37eb7694de8f3407b95f1a6a31fb0f6a,SPRINGFIELD OUTPATIENT CLINIC,25 Bond Street,SPRINGFIELD,MA,1104,42.110065,72.60007,4137316000,"$24,023.76",186,4137316000
d311e70d86e73c03b11553892bcf7ef1,WORCESTER OUTPATIENT CLINIC,605 Lincoln Street,WORCESTER,MA,1605,42.297756,71.766815,5088560104,"$3,30,003.80",2650,5088560104
7b50426fb50b3d7cab2204a0e1632ac8,BOSTON VET CENTER,7 Drydock Ave  Suite 2070,BOSTON,MA,2210,42.34461,71.03728,8572036461,"$41,331.20",327,8572036461
3fbe3da98e413118a2537e2d1b46480f,BROCKTON VET CENTER,1041L Pearl St.,BROCKTON,MA,2301,42.055134,71.06661,5085802730,"$25,263.69",196,5085802730
7c530dcd43f33f87b41b9f704205e0f8,NEW BEDFORD VET CENTER,73 Huttleton Ave.  Unit 2,FAIRHAVEN,MA,2719,41.6318,70.8801,5089996920,"$73,492.04",574,5089996920
78dbf05269583c67af45b5a450b70fe4,SPRINGFIELD VET CENTER,95 Ashley Avenue  Suite A,WEST SPRINGFIELD,MA,1089,42.139397,72.62382,4137375167,"$56,391.10",448,4137375167
3a2242e0de37303bbdfce160c7eae518,WORCESTER VET CENTER,255 Park Ave Suite # 900,WORCESTER,MA,1609,42.265556,71.818665,5087537902,"$39,342.13",310,5087537902
d5f4875f6df232a8a01b47267f47fc49,TERRI PEREIRA,221 BOSTON POST RD,MARLBORO,MA,17523,42.349617,71.547214,5084815519,"$19,761.48",153,5084815519
74e00d142bbf3cf3ae7a71077abf5f3c,PCP148,175 ELM ST,SALISBURY,MA,19521,42.844794,70.841499,9788282053,"$9,299.52",72,9788282053
79e14b4480263599b8ac14813879825e,PCP297,307 MILL ST,HOLLISTON,MA,17461,42.195951,71.45343,5084291905,"$8,007.92",62,5084291905
6725cc67119b38a59fc8c104c2b7f993,PCP364,1010 MAIN ST,HOLDEN,MA,15201,42.355801,71.862574,5088299955,"$3,229.00",25,5088299955
de1376c48f2737ed85da6986458442f2,PCP661,28 GREEN ST,NEWBURY,MA,19511,42.770406,70.872417,9784630463,"$14,078.44",110,9784630463
438286b4bcc236089a7c4a1ec9bdb277,THAYER CHIROPRACTIC CENTER,955 MAIN ST,WINCHESTER,MA,18904,42.452752,71.144319,7817293870,"$4,649.76",36,7817293870
71b6fd75d5ca3f0aa81e1fc098c63ba2,PCP1090,173 MOUNT AUBURN ST,WATERTOWN,MA,24724,42.369451,71.177925,6179268086,"$4,391.44",34,6179268086
8b4fe11a5235364981fab155afee498d,PCP1329,247 NORTHAMPTON ST,EASTHAMPTON,MA,10271,42.265435,72.670813,4135846004,"$4,003.96",31,4135846004
fc0bcb63569b3658aa0371cf89aea64e,PCP1336,563 BROADWAY,EVERETT,MA,21493,42.405938,71.054649,6173890013,"$2,066.56",16,6173890013
6af0ebcc05f83fa69c0a8061fdadc2a4,PCP1609,130 CENTRE ST,DANVERS,MA,19231,42.574174,70.950516,9785005550,"$9,557.84",74,9785005550
1dc3e5eac4e539218091f93f95e6b114,PCP1847,54 NONSET PATH,ACTON,MA,17204,42.483953,71.438495,9784139445,"$5,553.88",43,9784139445
230b3872a16b3c49b4cb288c356ed3d4,PCP1901,450 W RIVER ST,ORANGE,MA,13641,42.605437,72.292074,9785441503,"$6,974.64",54,9785441503
0b829ba7406d3339b3301e995b1d72a0,PCP2044,150 MARKET ST,LYNN,MA,19011,42.474862,70.962185,7815926100,"$3,874.80",30,7815926100
6cb36205a8ea322b8376c9c7dc6121df,PCP2054,352 PARK ST,NORTH READING,MA,18642,42.578222,71.084398,9782901295,"$2,066.56",16,9782901295
b6fe1d9fde1d32f9a76dccd6fa82e3e0,DIAGNOSTIC ULTRASOUND ASSOCIATES PC,1 BROOKLINE PL,BROOKLINE,MA,24457,42.323853,71.142003,6177390245,"$6,070.52",47,6177390245
02da9e41565633e0be62aff604c958d3,PCP2381,17 HENSHAW ST,BRIGHTON,MA,21352,42.33196,71.020173,61736399881,"$6,070.52",47,NA
5c494a0740633887850043b72f19ad9f,PCP2402,5 MARKET SQUARE,AMESBURY,MA,19132,42.851284,70.955837,9783888054,"$2,195.72",17,9783888054
869ba21da974326097524d1ba8d12f28,PCP2617,102 WESTLAND RD,WESTON,MA,24931,42.360502,71.303433,7818948898,"$9,816.16",76,7818948898
518271fa23723b999b3fa9ccc3cfc33b,PCP2704,31 HASTINGS ST,MENDON,MA,17561,42.09387,71.544519,50847312005,"$4,262.28",33,NA
819a27bd81d73aecb990e79062cd0fd0,PCP2795,161 WASHINGTON ST,WALPOLE,MA,20321,42.146286,71.255604,7813188018,"$6,199.68",48,7813188018
7ff0344cce6136fd8187cd0d13af354a,PCP2851,14 SHERIDAN CIR,ATTLEBORO,MA,27035,41.931653,71.294503,5082229522,"$2,841.52",22,5082229522
ccfeccfd8e42343bb30cd078bcf2051c,PCP3184,80 WASHINGTON ST,NORWELL,MA,20611,42.164569,70.818844,78134747147,"$6,328.84",50,NA
775c7fab5ca13703ba2dc297992d97d1,PCP3357,37 E WHISTLESTOP MALL,ROCKPORT,MA,19661,42.656952,70.60463,9785462090,"$5,037.24",39,9785462090
f64a8254152a394caa574a7e88ce99af,PCP3554,450 W RIVER ST,ORANGE,MA,13641,42.605437,72.292074,9785441556,"$2,583.20",21,9785441556
d4c29c7dbe0c301c84e4399d3b552da6,PCP3722,108 MILK ST,WESTBOROUGH,MA,15811,42.268426,71.613309,5083667733,"$4,908.08",38,5083667733
0de9633c54dd39cb947c8ab5ecdf93a2,PCP3874,2 SHAKER RD,SHIRLEY,MA,14642,42.573654,71.640986,9784256666,"$6,199.68",48,9784256666
58fa71de229533b88932176a72078898,PCP4047,265 PLEASANT ST,ROCKLAND,MA,23701,42.129251,70.908736,7818786962,"$11,366.08",88,7818786962
f45aa838487d320da6c4fc0f4b968924,PCP4078,271 LAFAYETTE ST,SALEM,MA,19705,42.499248,70.898204,9787453445,"$5,424.72",42,9787453445
ddee27b93e12323ab713d10cdf15baa7,PCP4122,345 UNION ST,NEW BEDFORD,MA,27403,41.661303,70.937913,5086173296,"$7,749.60",61,5086173296
27ea375140d63fcc88ad4b7d0c710a7b,PCP4453,55 WAREHAM ST,CARVER,MA,23301,41.875179,70.746715,5082804825,"$3,874.80",30,5082804825
ad3a23c5ee9b361d96ee244364c9b63a,PCP4460,7 KIMBALL LN E,LYNNFIELD,MA,19402,42.534146,71.038333,9782907090,"$8,524.56",66,9782907090
755c4fdf858f3c6280bf5e9ae114c9cf,TRANQUIL MIND AND WELLNESS,109 RHODE ISLAND RD B,LAKEVILLE,MA,23471,41.834412,70.957166,5089471683,"$2,324.88",18,5089471683
4f5184d4ac0e3d059cb901f8737f24a5,PCP4514,63 S MAIN ST,NATICK,MA,17604,42.284822,71.348811,5086543500,"$4,649.76",36,5086543500
059cdf63a6163f61be4d410d0be0623a,PCP4608,1250 HANCOCK ST,QUINCY,MA,21694,42.261006,71.008988,6174712444,"$9,170.36",71,6174712444
6ab2e1c9e1853282a4e8d200a6f2b36c,PCP4621,282 MAIN ST,GROVELAND,MA,18341,42.7539,71.015935,9787582087,"$3,745.64",29,9787582087
6ae741a1f01a398e86f6ec5fb6c32f14,PCP4675,20 TREMONT ST,DUXBURY,MA,23325,42.044307,70.706045,7819340953,"$7,620.44",59,7819340953
98b63415bc213f43b5adb78fb98c023d,PCP4717,214 N MAIN ST,WEST BRIDGEWATER,MA,23791,42.021617,71.026717,5085872858,$645.80,5,5085872858
424452f2f497373bb9ed573a13b021f3,PCP4943,15 HENRY AVE,PITTSFIELD,MA,12016,42.45184,73.260685,4134437700,"$12,786.84",99,4134437700
1d316cdbfcb83b90a2e4079a330d344c,PCP5409,1318 BEACON ST,BROOKLINE,MA,24463,42.323853,71.142003,6174410173,"$4,262.28",34,6174410173
6092e2a8bf403b659d039eb8e7e651c1,PCP5851,68 EVERGREEN ST,KINGSTON,MA,23641,41.987196,70.741942,7815858199,"$1,549.92",12,7815858199
56dbf306b14b36498f4076064ddba6bf,PCP5984,2 S BRIDGE DR,AGAWAM,MA,10012,42.064731,72.653477,4137897455,"$2,712.36",22,4137897455
26f1b65c0efb36a4a07d50e0346f30a4,PCP6089,17 WALTHAM RD,WAYLAND,MA,17781,42.360427,71.361099,5083611224,"$5,424.72",42,5083611224
48f9895c222b3082ab260b5220b07ab4,PCP6451,201 PARK AVE,WEST SPRINGFIELD,MA,10893,42.125451,72.649734,4132597437,"$4,908.08",38,4132597437
6ea37b08500c3cafb600a7f90785c9fd,PCP6646,22 WOBURN ST,READING,MA,18673,42.535183,71.105423,7743921292,"$2,583.20",20,7743921292
a2aaf487f3e33882824de7bd8d61fcf9,PCP6716,1 OLDE N RD,CHELMSFORD,MA,18241,42.597055,71.3697,9784550437,"$7,749.60",60,9784550437
d4acb8de63b6392fbff402cc037cd31a,PCP6769,15 COTTAGE AVE,QUINCY,MA,21695,42.261006,71.008988,6173284348,"$3,616.48",28,6173284348
e9a3d0b3e44a3b9e95405dd9bfaeee78,PCP6815,233 HARVARD ST,BROOKLINE,MA,24465,42.323853,71.142003,6175136254,"$4,262.28",33,6175136254
2829651325913a9282cf2697f7e44ecc,PCP7021,2 DUNDEE PARK DR,ANDOVER,MA,18103,42.648044,71.161751,9782478958,"$4,003.96",31,9782478958
25e23ee2fa173b8f8bba34841db77290,PCP7099,210 WHITING PLACE,HINGHAM,MA,2043,42.224319,70.880673,78174090445,"$4,391.44",34,NA
973e7384d05b32ada8ccc39191ee9150,PCP7483,152 N ST,PITTSFILED,MA,1201,42.452045,73.26054,4134438480,"$9,428.68",73,4134438480
9eade1b2f0bf341495946f0a9297f6a4,PCP7541,53 LANGLEY RD,NEWTON,MA,24591,42.331876,71.208402,6172440196,"$4,003.96",31,6172440196
a548837bcb14377f87263fcd124f8950,PCP7593,241 PERKINS ST,JAMAICA PLAIN,MA,21304,42.33196,71.020173,6177389204,"$6,070.52",47,6177389204
9b49afd9785533779dc928b5d1f4ca0f,PCP7628,25 MAIN ST,WAYLAND,MA,17785,42.360427,71.361099,5086559127,"$4,649.76",36,5086559127
e70c555a032c3e058419d9eea8d0cbbe,PCP7857,233 HARVARD ST,BROOKLINE,MA,24465,42.323853,71.142003,6177389901,"$3,874.80",30,6177389901
a44feb45fa803489932f01c41ec01952,PCP7895,152 EMORY ST,ATTLEBORO,MA,27032,41.931653,71.294503,5088016606,"$3,874.80",30,5088016606
a0123c3624363609a5eb3c3857ed711d,PCP8367,12 CORSER ST,HOLYOKE,MA,10402,42.211656,72.642448,4138877827,"$1,291.60",10,4138877827
5f3e3a8504613b779505f57767d24412,PCP8369,25 OLD WESTPORT RD,DARTMOUTH,MA,27472,41.56651,70.958229,5088130981,"$11,753.56",91,5088130981
6ffe62de5d903cc7be16643a7496c817,PCP8458,601 AMHERST RD,SUNDERLAND,MA,13759,42.466691,72.546751,4136653336,"$7,232.96",56,4136653336
42a6d2c04c4130deb401d24121341258,PCP8527,258 MAIN ST,MILFORD,MA,17572,42.158692,71.521419,5084735888,"$8,137.08",63,5084735888
70ccf20bdc533d51af24e9349ac9645c,PCP8546,131 WORCESTER RD,WESTMINSTER,MA,14731,42.5546,71.90544,9788741991,"$3,745.64",29,9788741991
65110f22e3e134f5844b1d5a772762ad,PCP8766,165 MAIN ST,MEDWAY,MA,20531,42.156203,71.430345,7746413568,"$9,428.68",73,7746413568
fcae3c4495b93a38ba852f0385345e27,PCP9004,176 OLD COUNTY RD,WESTPORT,MA,27901,41.579794,71.081822,5086360703,"$12,657.68",98,5086360703
328362134ac73021aad86383f3ced351,PCP9022,1 HOLLYWOOD DR,GRAFTON,MA,15361,42.209151,71.683644,5088393616,"$14,336.76",111,5088393616
65a74939644132c0bd3e00b951c968e1,PCP9047,584 HIGH ST,DEDHAM,MA,20261,42.246872,71.179462,7814714338,"$5,037.24",39,7814714338
7a146a368ec03452b4860b6894af0458,PCP9095,10 S MAIN ST,BELCHERTOWN,MA,10079,42.27901,72.400468,4133238554,"$7,232.96",56,4133238554
f3e9d159191c3fbb86f0dfd0bf66d83f,PCP9242,201 PARK AVE,WEST SPRINGFIELD,MA,10893,42.125451,72.649734,4137884131,"$6,587.16",51,4137884131
1057a1f7e2353aafa52a7519bfd984c6,PCP9333,1415 BEACON ST,BROOKLINE,MA,24464,42.323853,71.142003,9788082516,$645.80,5,9788082516
3fe0cf122a0b33b2b80c45139c7889a9,PCP9455,2 COLUMBIA RD,PEMBROKE,MA,23591,42.067804,70.805713,7818262270,"$3,229.00",26,7818262270
8f345a316b91352cb956e1d59e797568,PCP9564,181 NORTHAMPTON ST,EASTHAMPTON,MA,10271,42.265435,72.670813,4135756394,"$7,878.76",62,4135756394
473293d9b54a384c914605416f9bdac4,PCP9643,173 MOUNT AUBURN ST,WATERTOWN,MA,24724,42.369451,71.177925,6173967687,"$2,454.04",19,6173967687
502a2ddbe54a3b439ad98103221c44d6,PCP9755,7 BARON WAY,LITTLETON,MA,14601,42.535931,71.490569,9785801342,"$5,424.72",42,9785801342
b3a365030436317fa5f0d18aa5629349,PCP9953,77 PLAYSTEAD RD,MEDFORD,MA,21551,42.423844,71.109231,7813326311,"$6,587.16",51,7813326311
06eff9e0c5b439ed82732f29cf5d3185,PCP10127,464 GRANITE AVE,MILTON,MA,21865,42.241557,71.082432,6176980998,"$10,978.60",85,6176980998
777aafd617433ea689ff99d9e3608aad,PCP10201,616 MAIN ST,DENNIS,MA,26381,41.706123,70.164823,5083852550,"$3,616.48",28,5083852550
fafcf3db7df53b1186539032850edd62,PCP10220,680 ASHBURNHAM HILL RD,FITCHBURG,MA,14201,42.601977,71.81587,9784238907,"$3,745.64",29,9784238907
2cdbd26a73043a8593bc9e92c6a91f00,PCP10689,403 HIGHLAND AVE,SOMERVILLE,MA,21442,42.390445,71.101033,6176665800,"$2,066.56",16,6176665800
b74c6b496c413c34829a33c4739872be,PCP10713,734 NEWPORT AVE,ATTLEBORO,MA,27035,41.931653,71.294503,5087616100,"$4,520.60",35,5087616100
036c2612ef3734689424255570c84216,PCP11124,88 WHARF ST,MILTON,MA,21863,42.241557,71.082432,6172981608,"$4,520.60",35,6172981608
db30cadc72a03810a951678fb424a606,PCP11284,22 ELLIS RD,WEST NEWTON,MA,24652,42.331876,71.208402,6179648809,$904.12,8,6179648809
dc8941c5a7a5378388b9b32ce05d34e7,PCP11647,712 GREAT POND RD,NORTH ANDOVER,MA,18452,42.673909,71.091334,9786973554,"$7,362.12",57,9786973554
9ba4bc4febc33c11b80a7caa2bbb3836,PCP11669,31 JACKSON ST,NEWTON,MA,24592,42.331876,71.208402,6174629339,"$2,970.68",23,6174629339
a856a319f21234eda1e1d94fd73e0c93,PCP11793,1105 LAKEVIEW AVE,DRACUT,MA,18264,42.679723,71.30068,9789575665,"$2,712.36",21,9789575665
043c21937fbd3a5cad68275230f1f3d4,PCP11873,DOVER MEDICAL PROFESSIONAL BUILDING,DOVER,MA,20302,42.23416,71.291167,5087852319,"$3,745.64",29,5087852319
4d4f015691103eddaa9453f4d58fce4a,PCP11928,55 PUTNEY RD,LEVERETT,MA,10549,42.468898,72.484579,4133486257,"$1,808.24",14,4133486257
daa4c4085fc532a8881e12181e8b8598,PCP12132,11 PROSPECT ST,SHERBORN,MA,17701,42.231947,71.372963,5085451843,"$4,391.44",34,5085451843
5f6db31e3b3238a0918e30bab4578915,PCP12160,9 CENTRE ST,DOVER,MA,20302,42.23416,71.291167,9783692390,"$6,845.48",53,9783692390
fea711393a82323c82a91e573fc1ec2c,PCP12341,67 CODDINGTON ST,QUINCY,MA,21694,42.261006,71.008988,6174712293,"$3,616.48",28,6174712293
ccafb5f70a903c109803d2e8798178a4,PCP12382,71 ADAMS ST,MILTON,MA,2187,42.241557,71.082432,6176869378,"$9,687.00",75,6176869378
d6e720e9fa6b36318609353bc9d1a5a2,PCP12398,1211 HIGHLAND AVE,NEEDHAM,MA,24922,42.281593,71.242414,7814494090,"$6,845.48",53,7814494090
3dc9bb2d5d663e61bf9ae234c6433577,PCP12399,27 COLLEGE ST,SOUTH HADLEY,MA,10751,42.256208,72.58103,4134460498,"$7,491.28",58,4134460498
da7997352a0b3a368b5c95e8b5023e06,PCP12877,142 N MAIN ST,BELCHERTOWN,MA,10079,42.27901,72.400468,4133231196,"$4,003.96",31,4133231196
66d9e1e46c0a3dbfa358e46aaf99c97a,PCP13181,441 MAIN ST,MELROSE,MA,21763,42.455723,71.059019,7816626060,"$7,878.76",61,7816626060
6cf7174ed3b8365fb74f72da86c3ab31,PCP13263,250 GRANITE ST,BRAINTREE,MA,21842,42.205416,71.002168,7818434295,"$7,491.28",58,7818434295
bd037283ea3d351d81edfdcb4db8ed1b,PCP13521,465 NASHUA RD,DRACUT,MA,18262,42.679723,71.30068,9788668530,"$2,583.20",20,9788668530
6283a0f298cd30e3a92d620a208e254c,PCP13525,307 CONCORD AVE,CAMBRIDGE,MA,21381,42.376043,71.11868,6174971484,"$5,295.56",41,6174971484
f0fdfcb5779b341abe4ea6445b300751,ORTHOSPORTS AND AQUATIC PHYSICAL THERAPY PC,1237 HIGHLAND AVE,NEEDHAM,MA,24922,42.281593,71.242414,7814441290,"$1,808.24",14,7814441290
5f6fe06aa68735408cabfda5744d8a29,PCP13802,986 SARATOGA ST,EAST BOSTON,MA,21281,42.375541,70.970646,6178463330,"$7,232.96",56,6178463330
78d6ee98f77038f8a1a447e15afd5a44,PCP13848,694 MAIN ST,HOLDEN,MA,15201,42.355801,71.862574,5088297191,"$9,687.00",75,5088297191
24af4325332b3db0b90012e3f8215177,PCP14018,159 CENTRAL ST,LOWELL,MA,18521,42.63898,71.321141,9784596262,"$8,782.88",68,9784596262
7b51122e57a43ceca1f4140c78a069ce,PCP14063,1 MERRIMAC ST,NEWBURYPORT,MA,19502,42.812141,70.886646,9784656585,"$8,912.04",69,9784656585
a2879c54b45d3af3bdb9f1a425583699,PCP14074,185 SCHOOL ST,MILTON,MA,21863,42.241557,71.082432,6177281410,"$7,620.44",59,6177281410
720d923f7c6d30b0ba7a2f45be843188,CENTER FOR EYE EXCELLENCE,1515 ALLEN ST,SPRINGFIELD,MA,11181,42.115454,72.539978,4137820030,"$4,391.44",34,4137820030
6236e299a75138198b06a17004bdbbfd,BOSTON VISION WORKS INC,335 MAIN ST,SAUGUS,MA,19063,42.468432,71.013946,7812339570,"$9,299.52",72,7812339570
63b12098a29c357db1c04dcc2f0b6d6c,PCP14226,250 BOSTON TURNPIKE,SHREWSBURY,MA,15455,42.284767,71.714228,5087916809,"$4,649.76",36,5087916809
588e03bd91bc3442be9e66c18ba36c0c,KHOURY CHIROPRACTC INC.,116 MECHANIC ST,BELLINGHAM,MA,20191,42.076682,71.47449,5089663777,"$26,606.96",206,5089663777
b1b59ef1fcf434f88fd24d51b1586d85,PCP14706,92 FAUNCE CORNER RD,NORTH DARTMOUTH,MA,27471,41.646686,70.999158,5089941109,"$8,137.08",63,5089941109
b1423e2820403f03b51c16a35b0ee7c8,ASSOCIATED EYE PHYSICIANS AND SURGEONS INC,1261 FURNACE BROOK PKWY,QUINCY,MA,21694,42.261006,71.008988,6177700011,"$2,195.72",17,6177700011
f0a15912b4373e40a642ec6d0adc8c69,PCP15153,1 MEETING HOUSE RD,CHELMSFORD,MA,18242,42.597055,71.3697,9782508880,"$5,683.04",44,9782508880
92fba4acef813a44992164c063301834,PCP15182,1070 ROUTE 134,EAST DENNIS,MA,26410,41.735497,70.157388,5083857474,"$14,465.92",113,5083857474
c58b8233f2823b13ad4e923efb2ac061,PSYCH CARE ASSOC PC,185 W AVE,LUDLOW,MA,10561,42.183577,72.457812,4135836750,"$7,491.28",58,4135836750
f883aa4c18f630c88ee1881d4bfe00e4,PCP15430,7 A LAUREL ST,FAIRHAVEN,MA,27192,41.633619,70.871306,5089974302,"$8,782.88",68,5089974302
290f8d1dfc6b38bd90b33c15d56dd97a,PCP15602,51 MAIN ST,GLOUCESTER,MA,19305,42.62885,70.685875,9782815131,"$4,262.28",33,9782815131
1ae1648011ce35df89ee78947036c59c,PCP15690,1180 BEACON ST,BROOKLINE,MA,24463,42.323853,71.142003,6172772449,"$9,041.20",70,6172772449
438a54db5c753b7693579028a57babc4,PCP15785,356 MONTAGUE CITY RD,TURNERS FALLS,MA,13761,42.597445,72.555278,4137730009,"$10,203.64",79,4137730009
1f6b666721043bbaa332c119f6ffbb64,PCP16049,191 CHERRY HILL DR,SEEKONK,MA,27712,41.839798,71.318047,4016172284,"$4,003.96",31,4016172284
34a0de2879fc3feebbbe7c12a9e84258,PCP16089,519 AMERICAN LEGION HWY 2,WESTPORT,MA,27904,41.579794,71.081822,5086366423,"$5,941.36",46,5086366423
48bc3aff5ff43ec6b7e55a5b36680331,PCP16262,1032 TURNPIKE ST,CANTON,MA,20212,42.175737,71.125385,6175492939,"$8,782.88",69,6175492939
95394b172f1f3c42b4e2233704fb9195,PCP16338,65 POST OFFICE PARK,WILBRAHAM,MA,10951,42.126883,72.430952,4133661717,"$4,778.92",37,4133661717
28bfd43390a637d5961a4d0696008884,PCP16416,2000 WASHINGTON ST,NEWTON,MA,24621,42.331876,71.208402,6172436450,"$10,591.12",82,6172436450
59e287a5d68e3fcd914737d797f40705,PCP17011,1044 GAR HWY,SWANSEA,MA,27774,41.758163,71.214181,5086757725,"$3,616.48",28,5086757725
d750c37d55ef3ddca61290946d8ccc9a,PCP17339,1266 FURNACE BROOK PKWY,QUINCY,MA,21697,42.261006,71.008988,3399870767,"$3,616.48",28,3399870767
5b886ab0eee43253973e7419afc5a2ce,PCP17517,203 ALLSTON ST,CAMBRIDGE,MA,21393,42.376043,71.11868,6174923868,"$3,358.16",26,6174923868
261b14f539d737eba8b7606014d8eff3,PCP17774,493 ESSEX ST,LAWRENCE,MA,18401,42.700273,71.161357,9786867111,"$7,620.44",59,9786867111
17858e6e2c6a34588ef62c0dd5d834cf,PCP17778,840 MAIN ST,MILLIS,MA,20541,42.173103,71.363756,5083764262,"$3,616.48",28,5083764262
bee3973f125a3713807e8e9c0f9e304e,PCP17791,103 ELM ST,MILLBURY,MA,15272,42.192246,71.777649,5088659951,"$1,291.60",10,5088659951
1faba772ae22385ba6f502ea2479a080,PCP17929,1419 BEACON ST,BROOKLINE,MA,24464,42.323853,71.142003,6177344827,"$4,908.08",38,6177344827
bf0bb03e69c930f8ae5614913d5a71c5,PCP17973,12 CORSER ST,HOLYOKE,MA,10402,42.211656,72.642448,4132372430,"$6,458.00",50,4132372430
3e54a0c121ed34ea9696e64a09626bcc,PCP18347,33 PILGRIM PATH,CARLISLE,MA,17411,42.53662,71.361832,9783719797,"$7,103.80",55,9783719797
5aa98f16c8323ec5b52a2691978cc235,PCP18474,80 BROADWAY,REVERE,MA,21515,42.421005,70.99036,7812897929,"$2,583.20",21,7812897929
eb955fe3248e3f50a806a35ba2092716,PCP18821,9 BRANCH ST,METHUEN,MA,18441,42.742751,71.178588,5086227632,"$3,874.80",30,5086227632
4b562cab70a73a46bb2ca1d4b85fdba6,PCP19106,328 BROADWAY,CAMBRIDGE,MA,21391,42.376043,71.11868,6176613113,"$8,912.04",69,6176613113
3553d3a568c03da68aed37f3bd7209c9,PCP19378,53 COUNTY RD,MATTAPOISETT,MA,27391,41.661363,70.812024,5087581330,"$4,391.44",34,5087581330
1f8bf1bc2c073ea697820a8eb036ba4f,PCP19450,741 SALEM ST,LYNNFIELD,MA,19402,42.534146,71.038333,7815922225,"$9,170.36",71,7815922225
5f0ddfb16ba030edae87481cfbbf5d01,PCP19483,8 ROBERTA DR,S DARTMOUTH,MA,27482,41.661303,70.937913,5089929376,"$12,528.52",97,5089929376
4760f33a83c4372784a7a8a6080125cb,PCP19561,68 MARKET ST,LYNN,MA,19011,42.474862,70.962185,6179477456,"$3,616.48",28,6179477456
779935ac770d3f969870c38771f2c81b,PCP19714,22 MT AUBURN ST,WATERTOWN,MA,2472,42.369451,71.177925,6172322858,"$5,553.88",43,6172322858
86f868e93325301998d934ca2dc11f20,TANZMAN MASELLI AND ASSOCIATES PC,151 ASHLAND ST,N ADAMS,MA,12474,42.675549,73.118108,4136622020,"$17,953.24",140,4136622020
cc648e4dae3a3933930ef1f34189eb97,PCP19816,361 WASHINGTON ST,WESTWOOD,MA,20901,42.219645,71.216768,7813263571,"$12,786.84",100,7813263571
0b56e6a5537535ad93f81c5445dc2905,PCP20257,259 CROWELL RD,CHATHAM,MA,26331,41.621629,69.981956,5089452552,"$7,620.44",59,5089452552
ff9a379540b135f9b4dda85566d39072,PCP20300,60 MUNSON MEETING WAY F,CHATHAM,MA,26331,41.621629,69.981956,5089453131,"$8,524.56",67,5089453131
46084d3fe6a237bcb8309b15674f7cae,PCP20314,117 MAIN ST,SPENCER,MA,15622,42.247211,71.991867,5088852500,"$3,745.64",29,5088852500
4cd7de25382b30f894d5e353e3eca86a,PCP20489,2 WHITING RD,DOVER,MA,20302,42.23416,71.291167,5087851770,"$4,520.60",35,5087851770
772ee193bb9f30eb993921e86c8e4da5,PCP20565,137 MAGAZINE ST,CAMBRIDGE,MA,21394,42.376043,71.11868,6173540806,"$4,262.28",33,6173540806
d6c83c6af78f3e23a2f4444f9519d576,HOLLISTON VISION CENTER INC,841 WASHINGTON ST,HOLLISTON,MA,17461,42.195951,71.45343,5084291330,"$5,941.36",46,5084291330
46ef601671fa355f91daf6482657a00d,REDSTONE EYE ASSOCIATES LLC,75 MAIN ST,STONEHAM,MA,21803,42.474208,71.097665,7814383372,"$10,332.80",81,7814383372
09f69020aa1e3bd8b1f19b4534273281,PCP21378,515 PROVIDENCE HWY,DEDHAM,MA,20266,42.246872,71.179462,2013882656,"$6,716.32",52,2013882656
1b4d6a1480b6357593e45727d800db8b,PCP21427,230 ROUTE 149,MARSTONS MLS,MA,26481,41.662727,70.357208,5084283698,"$4,908.08",38,5084283698
b3e3096403f231368347255d16f65d93,PCP21436,379 MAIN ST,YARMOUTH PORT,MA,26751,41.70692,70.221117,5083628828,"$3,616.48",28,5083628828
f4e1ca5753dc38d9b9faf889337a3410,PCP21707,425 UNION ST,WEST SPRINGFIELD,MA,10894,42.125451,72.649734,4137346245,"$7,232.96",56,4137346245
63f5900e4fce3ddc97f41cdfb91b8a81,FAMILY SERVICES OF THE MERRIMACK VALLEY INC.,430 N CANAL ST,LAWRENCE,MA,18401,42.700273,71.161357,9783276618,"$3,099.84",24,9783276618
6352f08d63233a16bfb5205ac0332cf3,PCP21854,64 WESTBOURNE ST,ROSLINDALE,MA,21313,42.33196,71.020173,6179473040,"$4,262.28",33,6179473040
16784c94843d3474a1d50c443af67ffa,PCP21871,33 WATERFALL DR,CANTON,MA,20214,42.175737,71.125385,7818126019,"$3,745.64",29,7818126019
a369fdd9db243a439c8b9b1679b55fc5,PCP21971,601 NEWTON ST,SOUTH HADLEY,MA,10752,42.256208,72.58103,4135347200,"$5,812.20",45,4135347200
4fd66406343839539644caef76160bac,PCP22021,211 COCHITUATE RD,FRAMINGHAM,MA,17014,42.307905,71.436196,5083808680,"$12,916.00",100,5083808680
5519120caf243f39bb6cb7fc0b50c8e6,PCP22063,630 S MAIN ST,LANESBOROUGH,MA,12379,42.535857,73.241133,4132360995,"$12,528.52",98,4132360995
45fbe90d10f739f49f842100c302faf9,PCP22338,500 SALEM ST,WILMINGTON,MA,18871,42.564647,71.164516,9789886240,"$7,620.44",59,9789886240
f18084dacd20347a93a9f62f748ba19a,PCP22490,5 N MEADOWS RD,MEDFIELD,MA,20522,42.184599,71.305307,5083595200,"$6,458.00",50,5083595200
e41014c3f87a37fa95b9e9d5d3073fc3,VERNICK AND GOPAL LLC,1244 BOYLSTON ST,CHESTNUT HILL,MA,24672,42.331876,71.208402,6173836800,"$1,679.08",13,6173836800
c038841092ac3f249bf78015960436e3,WILLIAM H LANGFIELD JR OD PC,598 COUNTY ST,SOMERSET,MA,27264,41.738479,71.165065,5086768167,"$10,461.96",81,5086768167
a13937fa4125320b908632e8660581cf,MOIRA L MCDERMOTT LOWER CAPE PODIATRY,4 GRANITE STATE COURT,BREWSTER,MA,2631,41.747513,70.066223,5084323907,"$8,395.40",65,5084323907
7b9038a975a1342984ed8f4c6414f13e,PCP23388,79 OLD STAGE RD,CHELMSFORD,MA,18244,42.597055,71.3697,9782569958,"$5,295.56",41,9782569958
5bf83e18ef6e33a8ad5b86cb70b4795a,PCP23572,817 MERRIMACK ST,LOWELL,MA,18543,42.63898,71.321141,9784520672,"$3,487.32",27,9784520672
7408655492563f1f9bfbef7237391d25,PCP23574,104 WHALON ST,FITCHBURG,MA,14207,42.601977,71.81587,9783455200,"$3,616.48",28,9783455200
7be4eb2c88593161859ab6b1782452aa,PCP23795,60  I MUNSON MEETING WAY,CHATHAM,MA,26331,41.621629,69.981956,5082407946,"$7,362.12",58,5082407946
c53c3c29b1a03f1c8d335fa4d8347567,PCP24176,1121 MAIN ST,WEYMOUTH,MA,21901,42.206676,70.945845,7816827530,"$3,229.00",25,7816827530
fb27891140bf3697962d08f729b2e7b8,PCP24334,2000 WASHINGTON ST,NEWTON,MA,24621,42.331876,71.208402,6179652328,"$6,845.48",53,6179652328
5ec449c07654355d9f8e49c975d426b0,PRESCRIPTION ORTHOPEDIC AND SPORTS THERAPY,223 CHIEF JUSTICE CUSHING HWY,COHASSET,MA,20251,42.262428,70.798883,7818388767,"$2,841.52",22,7818388767
591ffe05d4113512b7a468cb50cab161,PCP24532,172 MIDDLESEX AVE,WILMINGTON,MA,18872,42.564647,71.164516,9786584432,"$4,778.92",37,9786584432
ee1a65b69cdc32caa8ea8c1b1bfca928,ENCOMPASS CARE COMPANY INC,2 PARK CENTRAL DR,SOUTHBOROUGH,MA,17721,42.299625,71.528427,5084818346,"$5,812.20",45,5084818346
04c1cc5911e330e5b3170bf5e765f3e8,BEACON FAMILY MEDICINE LLP,130 COUNTY RD,IPSWICH,MA,19382,42.695981,70.835648,9783561192,"$3,616.48",28,9783561192
027988f59d2d367fa9a47daafe78bf61,PCP25103,382 KENRICK ST,NEWTON,MA,24582,42.331876,71.208402,6179692084,"$8,137.08",63,6179692084
21fef6e9114531a3a8e8d5b67ed44020,PCP25354,180 SODA SPRING CREEK DR,SHEFFIELD,MA,12570,42.10365,73.359887,4132293640,"$7,103.80",56,4132293640
10968ba275e7351aa73ac37a2a8dfcfc,PCP25544,65 EASTERN AVE,ESSEX,MA,19291,42.64042,70.771172,9782908889,"$5,166.40",40,9782908889
279b2a85ab643dec90dffbca8b479db5,PCP25692,48 CHERRY ST,WENHAM,MA,19841,42.600633,70.883303,9784736078,"$14,982.56",116,9784736078
e81341823ed93b41abdc9f4a47b23f2d,PCP25990,33 ELECTRIC AVE,FITCHBURG,MA,14207,42.601977,71.81587,9783434747,"$3,229.00",25,9783434747
c11e7b71934b3615887558dd0066af6b,PCP26032,61 ROSELAND ST,SOMERVILLE,MA,21433,42.390445,71.101033,6176611097,"$9,687.00",75,6176611097
04cbfe780d3f327794762be9f8dc5191,PCP26077,26 HIGH ST,MILTON,MA,21863,42.241557,71.082432,6176986003,"$8,912.04",69,6176986003
43de7525f2f939a9b8ff9cba4ef56988,PCP26110,117 HIGHLAND AVE,WATERTOWN,MA,24721,42.369451,71.177925,6179238135,"$6,974.64",54,6179238135
a8e7f9f0013e3629bbcdff75dcb46e96,ANDREA DIFILIPPO LICSW AND ASSOCIATES INC,119 WAREHAM RD,MARION,MA,27381,41.706839,70.75096,5087483131,"$2,712.36",21,5087483131
e89fc67f7cf03687bf77b4afa1a88fd8,PCP26392,183 W STATE ST,GRANBY,MA,10339,42.244949,72.500143,4132220998,"$4,391.44",34,4132220998
fcf80e6703a636a9af90204285386103,PCP26478,8 PICKETT ST,MARBLEHEAD,MA,19453,42.495629,70.83582,7816391710,"$5,941.36",46,7816391710
7fb56fd271ad336a920457765bd1e5d4,PCP26624,425 N RD,HAMPDEN,MA,10369,42.071188,72.417718,4135668503,"$5,295.56",41,4135668503
b6aba88d2c3a3a58bf41fd7fe83571e8,PCP26677,18 BELLEVUE AVE,CAMBRIDGE,MA,21403,42.376043,71.11868,6175476542,"$6,716.32",53,6175476542
e62988b8d0a631eca1a6610b4a9f8227,INDEPENDENCE EYE ASSOCIATES LLC,365 FAUNCE CORNER RD,NORTH DARTMOUTH,MA,27476,41.646686,70.999158,5089856600,"$6,458.00",50,5089856600
94ea55a14520348383936c49f579161d,PCP27013,68 MARKET ST,LYNN,MA,19011,42.474862,70.962185,7815860400,"$4,133.12",32,7815860400
1061b2b7016735bc916a3b3207fe2bfc,PCP27026,82 MAIN ST,WAKEFIELD,MA,18801,42.50436,71.064061,7816218686,"$4,908.08",38,7816218686
9f771fe745773034a17da692f35931a6,PCP27202,1200 CONVERSE ST,LONGMEADOW,MA,11061,42.047565,72.57113,4135670708,"$5,812.20",45,4135670708
b0001afb4ac831f884c85496feb2613b,PCP27358,40 S ST,MARBLEHEAD,MA,19453,42.495629,70.83582,9788578397,"$7,878.76",61,9788578397
442660b2c756396bb8e16e19c7f05133,PCP27403,333 WESTERN AVE,CAMBRIDGE,MA,21393,42.376043,71.11868,6175470703,"$9,945.32",77,6175470703
271b5492bf28368cbbf4292a532bd090,PCP27719,57 RT,ORLEANS,MA,26532,41.76935,69.969034,5082375571,"$10,074.48",78,5082375571
a44b37daaa9b37f0993e26e58974e086,PCP27951,727 HIGH ST,WESTWOOD,MA,20902,42.219645,71.216768,7813295446,"$12,141.04",94,7813295446
d224247d6fc0395e9bd2b4c325d55b5d,PCP28161,162 GREAT RD,ACTON,MA,17205,42.483953,71.438495,9782640060,"$6,716.32",53,9782640060
f09cf5019c203a90895ed08fe18aa79a,PCP28216,140 WOOD RD,BRAINTREE,MA,21842,42.205416,71.002168,7815348808,"$5,295.56",41,7815348808
07c54b7a99ed3a14a8c1922986a51ec3,PCP28493,1040 GREAT PLAIN AVE,NEEDHAM,MA,24923,42.281593,71.242414,7814490929,"$2,454.04",19,7814490929
af3c865715b83feeb6562ea1f1cb61ef,PCP28562,112 S GREAT RD,LINCOLN,MA,17734,42.425506,71.310812,7812598122,"$1,162.44",9,7812598122
84aaa30f4fdf368f8a31980c21e4b598,PCP28624,841 MAIN ST,WALPOLE,MA,20812,42.146286,71.255604,5084980766,"$1,549.92",12,5084980766
66ebf1f21b4337709572c3702a95facf,PCP28779,113 BELMONT ST,BELMONT,MA,24783,42.395317,71.180284,6174841042,"$7,620.44",59,6174841042
2970d4abdefb32aa8da3be427619fd84,PCP28835,7 WHITE PINE LANE,LEXINGTON,MA,24216,42.445222,71.230015,7818627331,"$7,103.80",55,7818627331
6aeb37bd8ad539d5b021d09c1e55c3d5,PCP28914,15 STORY ST,CAMBRIDGE,MA,21384,42.376043,71.11868,6178683353,"$4,003.96",31,6178683353
8e65bfaef62732e8bce0b44f7130befe,PCP29121,10 LONGWOOD DR,WESTWOOD,MA,20901,42.219645,71.216768,7813294433,"$11,882.72",92,7813294433
af8a70b8190033f791a0350f1f59518e,PCP29134,10 CENTRAL ST,WEST SPRINGFIELD,MA,10892,42.125451,72.649734,4137463932,"$9,687.00",75,4137463932
1ca2afca68173a2281d770b3b1366183,PCP29525,65 NEPONSET AVE,FOXBOROUGH,MA,20354,42.061338,71.245802,5085437160,"$9,041.20",70,5085437160
5e241bed136b3a90a3d642f7b9cab3c2,PCP29534,93 POND ST,SHARON,MA,20672,42.108463,71.185182,7817247468,"$2,454.04",19,7817247468
ee394632cdfa3709ac47eba10a419652,PCP29548,1236 MAIN ST,HOLYOKE,MA,10402,42.211656,72.642448,41353267771,"$8,137.08",63,NA
2d5dd8f647c2303ab5f280cd494bba36,PCP29556,277 MAIN ST,GREENFIELD,MA,13013,42.614671,72.597063,4137726080,"$8,266.24",64,4137726080
ead3fcfcc7013505b19cb9e8119bcbe0,PCP29608,120 N MAIN ST,ATTLEBORO,MA,27032,41.931653,71.294503,5082262542,"$10,203.64",79,5082262542
b165f308d1b538a89fc863091a93f25c,PCP29637,480 ADAMS ST,MILTON,MA,21864,42.241557,71.082432,5087597752,$774.96,7,5087597752
4e383e1d10603747a4f0d639980ff360,PCP29892,131 HARVARD ST,BROOKLINE,MA,24466,42.323853,71.142003,6179344744,"$5,553.88",43,6179344744
028b5b8e40d9381f957f0ed3e4503b4a,PCP30031,167 DWIGHT ROAD,LONGMEADOW,MA,11061,42.047565,72.57113,4135252166,"$2,583.20",20,4135252166
15740d88c092302fa2ba6dcfd5f74890,PCP30062,1101 BEACON ST,BROOKLINE,MA,24465,42.323853,71.142003,6177381274,"$3,616.48",28,6177381274
4d51cbaa1dcf388f94644b39b204fc3c,PCP30089,116 APPLETON ST,CAMBRIDGE,MA,21383,42.376043,71.11868,6176619633,"$8,653.72",67,6176619633
51eeadc5b8d33b0286303561955b3fe4,PCP30115,1044 CENTRAL ST,STOUGHTON,MA,20724,42.119006,71.10365,6176159253,"$7,620.44",59,6176159253
5ebb21103a7b32c6adf560f42b27af76,PCP30214,123 UNION ST,EASTHAMPTON,MA,10274,42.265435,72.670813,4135271300,"$6,974.64",54,4135271300
02c59aefa75f33f2a16125b01d9a5bc4,CROSSROADS HEALTH GROUP P.C.,35 TURKEY HILL RD,BELCHERTOWN,MA,10079,42.27901,72.400468,4133231115,"$1,679.08",13,4133231115
19635c41a6a13b8e80515d8f0c017011,PCP30551,55 CEDAR ST,WORCESTER,MA,16092,42.269478,71.807783,5087572233,"$4,003.96",31,5087572233
afa2a4f1dd6834d9a47b44efaa9c469d,PCP30645,145 COURT ST,PLYMOUTH,MA,23606,41.897892,70.62403,5087462948,"$3,874.80",30,5087462948
ac06e0acff6130aa9a9d7856c2a6495c,PCP30726,162 COBBLE LANE,SHEFFIELD,MA,12570,42.10365,73.359887,4132293634,"$10,203.64",79,4132293634
e613f5a175883efe8701fa9baf3241ff,PCP31073,338 TREMONT ST,REHOBOTH,MA,27692,41.846878,71.24487,5082233434,"$15,111.72",117,5082233434
0b63e23bb7623d4ebbc7a98424644d08,PCP31171,77 WARREN ST,BRIGHTON,MA,21353,42.33196,71.020173,6177874662,"$4,133.12",32,6177874662
91a535892df13e27a3eb28970c71ae03,PCP31320,261 UNION ST,NEW BEDFORD,MA,27405,41.661303,70.937913,5089970096,"$3,745.64",29,5089970096
2f09e5c4f0133b8eaa9d6564542502a0,PCP31724,300 NEWBURYPORT TRUNPIKE,ROWLEY,MA,1969,42.721495,70.886637,9789483900,"$3,874.80",30,9789483900
fd605ea5870c33cbb7e200b9dd93a576,PCP31847,48 CEDAR ST,WORCESTER,MA,16092,42.269478,71.807783,50875648251,"$6,716.32",52,NA
0154718efb2d3969bbf8045641fe7dc9,PCP32178,247 NORTHAMPTON ST,EASTHAMPTON,MA,10271,42.265435,72.670813,4137461016,"$3,616.48",28,4137461016
2f66f20780a53899bd89fe7bad51def9,PCP32227,1 CHESTNUT ST,SALEM,MA,19703,42.499248,70.898204,9785945663,"$4,262.28",34,9785945663
b37dbacbfbfd350a861b2dd23f3c83fc,PCP32238,1419 BEACON ST,BROOKLINE,MA,24464,42.323853,71.142003,6177392828,"$11,624.40",90,6177392828
f61f14cb80613fa0ab90221cb033eaa0,PCP32281,5 POND RD,HARVARD,MA,14511,42.504256,71.588513,9784563181,"$4,520.60",35,9784563181
e7be2bea4a1b3bac98743b149652461a,PCP32467,3 OAKDALE LN,LINCOLN,MA,17731,42.425506,71.310812,7812599911,"$11,107.76",86,7812599911
8fd412d6410b3d188846cce73ab81e1c,PCP32478,35 TURKEY HILL RD,BELCHERTOWN,MA,10079,42.27901,72.400468,4136685707,"$7,878.76",61,4136685707
42e990c964cc3a6bb4635b306fddabbe,PCP32522,12 DICKINSON ST,AMHERST,MA,10022,42.363534,72.507291,4132566004,"$12,657.68",98,4132566004
4d9e063a001a3050b1853f53e1763ae4,PCP32637,1476 G DRIFT RD,WESTPORT,MA,27901,41.579794,71.081822,5086366600,"$2,454.04",20,5086366600
d3a5680cdd8034c3bb3728989b918670,PCP32925,10 CONCORD AVE,CAMBRIDGE,MA,21382,42.376043,71.11868,6179210332,"$1,679.08",14,6179210332
5585b8a7cdd93b8ab78a7aaa076a11aa,PCP33018,10 LANGLEY RD,NEWTON CENTER,MA,24591,42.331876,71.208402,6172430004,"$9,041.20",70,6172430004
b1516ff8952b3f90a485e43e29cbf469,PCP33041,14 MAIN ST,SOUTHBORO,MA,17721,42.272062,71.522795,5087879713,"$12,011.88",93,5087879713
95ada8d89f3830309e1261acb7632fa5,PCP33045,1074 MAIN ST,WEST BARNSTABLE,MA,26681,41.662727,70.357208,5083621180,"$7,491.28",58,5083621180
ebcdaf9650e8340e806f04cfaca27857,PCP33080,715 OLD KINGS HWY,WELLFLEET,MA,26678,41.916805,70.0271,5088967790,"$11,107.76",86,5088967790
e0739d6435893bbeb8ea808280085318,PCP33184,290 MAIN ST,COTUIT,MA,26353,41.662727,70.357208,5084285772,"$9,299.52",72,5084285772
789eb815c0ab31ca8b840ce00727ad97,ADAMS PHYSICAL THERAPY LLC,1 BERKSHIRE SQ,ADAMS,MA,12201,42.62556,73.119828,4137432600,"$7,103.80",56,4137432600
d1af8327fe863aabb9af8d3443f72995,PCP34031,62 MAIN ST,UPTON,MA,15681,42.176526,71.603588,5085292700,"$6,199.68",48,5085292700
8bfeb69c99393fd5b27db877d27d017f,PCP34087,24 ROCKLAND ST,HANOVER,MA,23392,42.122956,70.85631,78182682281,"$11,236.92",87,NA
8fbdc477d05c3d6796f14fbf1b08102d,KAREN HOLMES PHYSICAL THERAPY LLC,191 ELM ST,SALISBURY,MA,19521,42.844794,70.841499,9784991870,"$7,491.28",58,9784991870
33145183be4b3f49809e05a81cce7ecd,PCP34313,52 CENTRAL ST,GARDNER,MA,14401,42.584206,71.988737,9786325722,"$12,399.36",96,9786325722
337fcc9ce7b436d890408506236f4bdf,PCP34452,321 WASHINGTON ST,GLOUCESTER,MA,19303,42.62885,70.685875,9782811411,"$1,679.08",13,9782811411
8264ced40aa33b069a36ebb972287956,PCP34514,430 OLD BASS RIVER RD,SOUTH DENNIS,MA,26602,41.704066,70.15065,5083854061,"$12,528.52",98,5083854061
dd43b7986c993cdbbd1965f1cc2a370d,PCP34565,410 A SWAMP RD,RICHMOND,MA,12540,42.383497,73.359187,4136988123,"$19,374.00",150,4136988123
ccdd9f7d801038ae9607a951a6f2084e,PCP34714,8 BURNHAM ST,TURNERS FALLS,MA,13761,42.597445,72.555278,4138012949,"$9,945.32",77,4138012949
47a48a7379df32e68596dfd44f2279e9,PCP34730,481 BEDFORD ST,BRIDGEWATER,MA,23243,41.972376,70.978773,5086978899,"$1,162.44",9,5086978899
479d87649f18300e869557c43e37cf4a,PCP34751,1170 MAIN ST,W BARNSTABLE,MA,26681,41.662727,70.357208,5087372701,"$11,882.72",92,5087372701
3fc0df8610e33e029014c8123ec39886,PCP34951,2016 OCEAN ST,MARSHFIELD,MA,20503,42.115139,70.710331,7818340390,$774.96,6,7818340390
404561f77d54352184dbbd836275fa9f,PCP34967,452 PLEASANT ST,MALDEN,MA,21488,42.42938,71.058706,7813223224,"$1,420.76",11,7813223224
1ff3f88c3e373a4d9f9e41c97cc2354a,PCP35028,2 S BRIDGE DR,AGAWAM,MA,10012,42.064731,72.653477,4132099576,"$2,970.68",24,4132099576
54c69f08de68349aa16c6a7a9b21b817,PCP35119,170 POND RD,WEST TISBURY,MA,2575,41.394406,70.656447,5086969171,"$3,616.48",28,5086969171
e0104181ceec32cfaba6255874c50b45,PCP35302,223 WALNUT ST,FRAMINGHAM,MA,17027,42.307905,71.436196,5088729195,"$3,099.84",24,5088729195
e2c63b97bebc31b1ac8b72ace3547669,BILLERICA CHIROPRACTIC OFFICE P.C.,25 BRIDGE ST,BILLERICA,MA,18211,42.559673,71.260947,9786671932,"$5,941.36",46,9786671932
f5364bba190d30678dd267bffb6c5f56,PCP35481,1070 IYANNOUGH RD,HYANNIS,MA,26011,41.647227,70.249978,5087719701,"$19,503.16",151,5087719701
44390bbed8d036e58d8db68aaa208b56,PCP35527,223 WALNUT ST,FRAMINGHAM,MA,17027,42.307905,71.436196,5088798004,"$5,166.40",40,5088798004
6e3af015b4153e29a9b642206feaa2c8,MELROSE FAMILY CHIROPRACTIC AND SPORTS INJURY CENTRE INC,653 MAIN ST,MELROSE,MA,21763,42.455723,71.059019,7816651497,"$3,229.00",25,7816651497
cae39e800c7f35bebfe91793d2905abc,PCP36514,3 WOODLAND RD,STONEHAM,MA,21801,42.474208,71.097665,7816653773,"$6,974.64",54,7816653773
91161180288937db980835f1c6f2a5f9,PCP36686,17 BREWSTER ST,PROVINCETOWN,MA,26571,42.056913,70.190488,8604509789,"$8,782.88",68,8604509789
42b37ebb560c34e2a166ef4e03ca0522,PCP36993,106 W FOSTER ST,MELROSE,MA,21763,42.455723,71.059019,7816654295,"$8,007.92",62,7816654295
c7b763e8052d3730b00ddec9a948c4cf,PCP37117,9 FOSTER ST,WAKEFIELD,MA,18802,42.50436,71.064061,7818505535,"$4,778.92",37,7818505535
502dd65ae8263bca89bb448b81ddbc15,PCP37168,39 PLYMOUTH ST,HOLBROOK,MA,23431,42.140346,70.997861,7817674207,"$11,107.76",86,7817674207
f9365758c6553e45a04e992837fac6a4,PCP37418,152 EDMANDS RD,FRAMINGHAM,MA,17013,42.307905,71.436196,5087885406,"$3,874.80",30,5087885406
cd1de71e98d13cba8fd22b20331ff03f,PCP37542,589 DARTMOUTH ST,S DARTMOUTH,MA,27482,41.661303,70.937913,5089975636,"$4,003.96",31,5089975636
b2ad68fb897e373882e408646bd54263,PCP37561,225 WOOD ST,HOPKINTON,MA,17481,42.224096,71.540489,7742750635,"$3,616.48",28,7742750635
b99591b94e95368ca79758d9adc97ac6,KHOURY CHIROPRACTC INC.,640 WASHINGTON ST,DEDHAM,MA,20264,42.246872,71.179462,7813293344,$387.48,3,7813293344
e3ed789e462f3e7598520aaad71aee63,PCP38234,340 MAPLE ST,MARLBOROUGH,MA,17523,42.349617,71.547214,5084811133,"$4,003.96",31,5084811133
56f02f79541639bbbd38b5b2b93d0902,PCP38475,90 CONCORD AVE,BELMONT,MA,24784,42.395317,71.180284,6175046985,"$3,616.48",28,6175046985
e115205969323ce8a8e57d6fd5d86bd2,PCP38895,850 SPRINGFIELD ST,FEEDING HILLS,MA,10302,42.064731,72.653477,4137338277,"$4,778.92",37,4137338277
ed3977f3b6cd3ff98a374e2c299b52d8,PCP38970,1681 WASHINGTON ST,BRAINTREE,MA,21847,42.205416,71.002168,7818438187,"$7,232.96",56,7818438187
f345af4f408c39b9a1c28a4e279b95a7,PCP39308,294 PLEASANT ST,STOUGHTON,MA,20722,42.119006,71.10365,7814004182,"$4,133.12",32,7814004182
8f8511a3705e341ab7b8b536f9fb376f,PCP39336,955 MAIN ST,WINCHESTER,MA,18904,42.452752,71.144319,7817293008,"$5,166.40",40,7817293008
172cefe10b023fb2aa53ca61cdaec115,BARLEY FAMILY HEALTHCARE AND REHABILITATION PC,270 HUTTLESTON AVE,FAIRHAVEN,MA,27191,41.633619,70.871306,5089979100,"$2,454.04",19,5089979100
866f38cdaf4936c2a073ee031c7609cd,READING FAMILY MEDICINE PC,30 NEW CROSSING RD,READING,MA,18673,42.535183,71.105423,7819420380,"$5,295.56",41,7819420380
ac69a419e1e33db7966e608ad8e4dc4b,PCP39627,67 BELMONT ST,WORCESTER,MA,16052,42.269478,71.807783,5088527200,$645.80,5,5088527200
d94c91867bed3d2488a2d5bc92d92737,PCP39872,12 ARROW ST,CAMBRIDGE,MA,21385,42.376043,71.11868,6178938752,"$4,262.28",33,6178938752
bdfb91b5a0413e9999ae3042ff8c11ba,CAPE GYNECOLOGY LLC,19 BAY STATE COURT,BREWSTER,MA,26312,41.747513,70.066223,5082552325,"$3,874.80",30,5082552325
405c1042e54b3ff3a5f8d6a0dcf03518,AUBURN PODIATRY LLP,492 WASHINGTON ST,AUBURN,MA,15015,42.198708,71.846006,5088326075,"$2,712.36",21,5088326075
f178140be29d39c6bca4c961e77acde2,PCP40593,25 MAIN ST,WAYLAND,MA,17785,42.360427,71.361099,9784602617,"$3,616.48",28,9784602617
42eff9fea834387ea0634c5a5ca30ee5,PCP41000,45 NEWBURY ST,BOSTON,MA,21163,42.338551,71.018253,6172668584,"$3,874.80",30,6172668584
8d7a43ca0630329a8ac45c9ac8484a74,PCP41078,2100 DORCHESTER AVE,BOSTON,MA,21245,42.338551,71.018253,6175064900,"$3,616.48",28,6175064900
f5259ffd9acb3311992aa3cfea7195e3,PCP41867,23 ADAMS ST,BURLINGTON,MA,18034,42.503227,71.201713,7812730099,"$3,874.80",30,7812730099
5f3b6a8a99a43564bc7f186b79d040db,TOTAL HEALTH CARE INC.,2 REEDSDALE RD,MILTON,MA,21863,42.241557,71.082432,6176980715,"$10,461.96",81,6176980715
65cea21fd0ae3d30894c20f051e07f80,WINCHESTER ORAL SURGERY PC,955 MAIN ST,WINCHESTER,MA,18904,42.452752,71.144319,7817292800,"$3,358.16",26,7817292800
188537adf72637c2bcb1b91c39d40de3,PCP43350,167 DWIGHT RD,LONGMEADOW,MA,11061,42.047565,72.57113,4135675533,"$4,133.12",32,4135675533
dce6ce7f7e6e3035aaad46379b6d0bf0,PCP44113,1236 MAIN ST,HOLYOKE,MA,10405,42.211656,72.642448,4134068380,"$6,070.52",47,4134068380
00b14d27ca1c33b6ab79b636bf184d1a,PCP44286,31 HASTINGS ST,MENDON,MA,17561,42.09387,71.544519,6175842794,"$4,391.44",34,6175842794
08a94aac7e113a09a3e4c2869ee66eee,PCP44465,23 PINECREST BEACH DR,EAST FALMOUTH,MA,25364,41.57072,70.556682,5085276001,"$5,037.24",39,5085276001
e8a1f232f36030d6806a8901d99c0787,PCP44556,1 R NEWBURY ST,PEABODY,MA,19603,42.534279,70.969782,9735351606,"$8,007.92",62,9735351606
2a02cf035b2230dfaae433f12583be21,PCP45458,51 LIBBY ST,BROCKTON,MA,23022,42.082543,71.024638,5085876060,"$11,882.72",92,5085876060
4b74b5b9b6453f1ba6133d8c1fada332,PCP45581,5 BYRON RD,WESTON,MA,24932,42.360502,71.303433,7814317399,"$4,520.60",35,7814317399
89989fdde9a23174bc1ef362919b4711,PCP45983,34 COURT ST,PLYMOUTH,MA,23608,41.897892,70.62403,5086884982,"$3,616.48",28,5086884982
e268d966c51d355b90a3edf1748d0b67,ROSMARK PSYCHOLOGICAL SERVICES LLC,186 CABOT ST,BEVERLY,MA,19155,42.556659,70.84496,9786468830,"$6,587.16",51,9786468830
223bac2edf6532f8ab52a8b064c00f15,PCP46659,519 AMERICAN LEGION HWY 8,WESTPORT,MA,27904,41.579794,71.081822,7743093555,"$5,941.36",46,7743093555
78fdac6c2d813ec5a4eec17b22988a32,PCP47638,28 GREEN ST,NEWBURY,MA,19511,42.770406,70.872417,9784992103,"$5,295.56",41,9784992103
5ff7960cf292386187a47eb8095bfed1,PCP47688,2100 LAKEVIEW AVE,DRACUT,MA,18263,42.679723,71.30068,7819561709,"$4,262.28",33,7819561709
57af70ba946b310989a882481c300705,COMPREHENSIVE PHYSICAL THERAPY PC,1037 MAIN ST,LEICESTER,MA,15241,42.238427,71.91234,5088921335,"$9,557.84",74,5088921335
0bac2d2fe91f343e89c6c0456b974959,PCP47896,313 LUNENBURG ST,FITCHBURG,MA,14204,42.601977,71.81587,9783429900,"$9,945.32",77,9783429900
c908bdbe5dcf3e209205ac67a60428ea,PCP47943,12 ARROW ST,CAMBRIDGE,MA,21385,42.376043,71.11868,6178760309,"$6,716.32",52,6178760309
6dffe5a953803a0798c85e9ba17bd7f6,CUMMINGS PHYSICAL THERAPY INC,425 REVERE ST,REVERE,MA,21514,42.421005,70.99036,7812847597,"$3,874.80",30,7812847597
8979fc79bab834bab7a5016443c958c5,OLIVIER GROUP PC,92 FAUNCE CORNER RD,DARTMOUTH,MA,27471,41.56651,70.958229,5089933000,"$7,491.28",58,5089933000
4917759b1f9e3733af09132e8a56641a,PCP48383,33 E MAIN ST,WARE,MA,10821,42.275462,72.280158,4139492772,"$3,099.84",24,4139492772
dfeef2b6c1ee305c8d8cbfda54e0fdc4,PCP48615,66 FISHER ST,NORWOOD,MA,20621,42.187364,71.195971,7814490087,"$3,616.48",28,7814490087
0bfbae86ec4633e38dc5bf2f47cf563c,PCP48656,1318 BEACON ST,BROOKLINE,MA,24463,42.323853,71.142003,6177342258,"$2,454.04",19,6177342258
a1ef63307fb033e8962201506abb1490,PCP49110,64 MACY ST,RAYNHAM,MA,27671,41.930477,71.046214,7744097395,"$5,553.88",44,7744097395
a0e3f669d53f3554a7d5144f422a342b,PERFORMANCE PHYSICAL THERAPY INC,99 4TH ST,CHELSEA,MA,21502,42.396824,71.031348,6178892500,"$3,099.84",24,6178892500
de5f6395ed2b384ab7649ff5e5e6e1a7,KYLE CORBIN DC PA,664 TAUNTON AVE,SEEKONK,MA,27713,41.839798,71.318047,5083364114,"$8,782.88",69,5083364114
00717240296a35b2a3368e3d9f085fce,NICOLE H. BOUDREAU MD P.C.,1180 BEACON ST,BROOKLINE,MA,24463,42.323853,71.142003,6172320440,"$6,587.16",51,6172320440
81d4854675453eb795430be8579e6ba1,PAGGI PHYSICAL THERAPY AND SPORTS REHABILITATION INC,1842 BEACON ST,BROOKLINE,MA,24451,42.323853,71.142003,8455909450,"$5,553.88",43,8455909450
c701b65152fc30679f4dce7c5e72b95d,NORFOLK COUNTY MEDICAL ASSOCIATES INC,844 FRANKLIN ST,WRENTHAM,MA,20931,42.052671,71.356858,5083845000,"$3,616.48",28,5083845000
b08737d6d470368d80574bd13a70d881,PCP50141,450 N MAIN ST,SHARON,MA,20671,42.108463,71.185182,5089443138,"$5,295.56",42,5089443138
09b127388d193f48bb861f0f0d3b5117,PCP50168,909 FORTUNE BLVD,MILFORD,MA,1757,42.158692,71.521419,5084737400,"$4,908.08",38,5084737400
5c94e9776b9e36278a71fcc187bb9dbd,PCP50214,26 HIGH ST,MILTON,MA,21863,42.241557,71.082432,6176984496,"$8,137.08",63,6176984496
415bf5aaea383685a13ce68fcc89b344,PCP50662,1 WASHINGTON ST,WELLESLEY HILLS,MA,24811,42.30539,71.283669,78123765502,"$5,683.04",44,NA
628b343f23603994ba841291d2a2421b,COMMONWEALTH OBGYN PC,1 BROOKLINE PL,BROOKLINE,MA,24457,42.323853,71.142003,6177321510,"$3,616.48",28,6177321510
2d65194f890e358e96bdae26070f196a,DEDHAM CONSULTATION CENTER LLC,339 WASHINGTON ST,DEDHAM,MA,20261,42.246872,71.179462,7814077770,"$2,583.20",20,7814077770
35a49dfd7ce33ef2bbb3eab67a5f26c3,NEW ENGLAND ORAL SURGERY ASSOCIATES LLC,2 ANDOVER RD,BILLERICA,MA,18211,42.559673,71.260947,9786678600,"$4,133.12",32,9786678600
8c81ca40e3953f808d6cab0bb7fea821,PCP52699,330 WALNUT ST EXT,AGAWAM,MA,10011,42.064731,72.653477,4137321908,"$8,007.92",62,4137321908
d32bd7bd421134d8a08bb1b2b810d41b,PCP53096,275 VARNUM AVE,LOWELL,MA,18542,42.63898,71.321141,9789349220,"$4,520.60",35,9789349220
1e8ab91eeace38c4a7fcc2887cab6523,MASSACHUSETTS ENT ASSOCIATES INC,3 MEETINGHOUSE RD,CHELMSFORD,MA,18242,42.597055,71.3697,9782565557,"$1,808.24",14,9782565557
39245aea583f34a8a898d79be91e5f48,PCP53549,115 MILL ST,BELMONT,MA,24781,42.395317,71.180284,6178552578,"$6,070.52",47,6178552578
1c064e6ae1a53124b29468ae3a9d6487,ALLACCESS PHYSICAL THERAPY INC.,904 C BOSTON TPKE,SHREWSBURY,MA,15453,42.284767,71.714228,5088453500,"$10,849.44",84,5088453500
1beddae8fe29300fae6795c5c6a56ba9,PCP53806,100 COPELAND DR,MANSFIELD,MA,20481,42.017302,71.21641,5089542355,"$4,649.76",36,5089542355
3bdd73185a9c3ecfba3e7163a602bdf4,PCP53831,638 ADAMSVILLE RD,WESTPORT,MA,27905,41.579794,71.081822,5086364769,"$7,491.28",58,5086364769
2c2904000b7e32f397590ff44c5559b8,PCP56166,180 BRACKETT RD,EASTHAM,MA,26422,41.841572,69.988926,6176862295,"$3,616.48",28,6176862295
0c15415c9da3371cb7b6df95c18e2d0c,PCP56256,70 WASHINGTON ST,SALEM,MA,19703,42.499248,70.898204,7818648048,"$1,033.28",8,7818648048
9964c8560911362791cceef5783a42e9,PCP57214,190 N MAIN ST,NATICK,MA,17602,42.284822,71.348811,5086512646,"$2,195.72",17,5086512646
f93e59e2c0e43118a1c23234c6dde120,CHARIS CENTER SOUTH INC.,604 FOUNDRY ST,EASTON,MA,2334,42.040515,71.109329,5089471901,"$7,749.60",60,5089471901
001d000fbe373cf293396b613dd0117d,EYE ASSOCIATES PC,500 SALEM ST,WILMINGTON,MA,18871,42.564647,71.164516,9786582880,"$8,137.08",63,9786582880
fe45b7c5765832369f4e59234293b022,PCP57359,59 ROWENA RD,NEWTON CENTRE,MA,24592,42.331876,71.208402,6174482281,"$2,195.72",17,6174482281
6ecf1212bfc63bfc98680b7eca2d6e2f,ORTHO SPORT PHYSICAL THERAPY INC,102 W CTR ST,WEST BRIDGEWATER,MA,23791,42.021617,71.026717,5085882800,"$4,133.12",32,5085882800
6d292afa3f273fa6945ecdce925a8062,PCP57666,550 BELMONT ST,WATERTOWN,MA,24724,42.369451,71.177925,6179240268,"$5,166.40",40,6179240268
eadeb4fdc28c3933b6d1fc0ae5d4af2e,PCP57734,166 COLLEGE HWY,SOUTHAMPTON,MA,10730,42.226949,72.741588,4135279903,"$8,912.04",69,4135279903
b9b970af5b5837c79bf38031e609bdcb,STEVEN I. KORNBLEUTH,111 LINCOLN ST,NEEDHAM,MA,24922,42.281593,71.242414,7814446200,"$3,358.16",26,7814446200
e63311d4a1733921a0b48d14e8045fc1,PIONEER VALLEY CARDIOLOGY ASSOCIATES INC,2 MEDICAL CTR DR,SPRINGFIELD,MA,11071,42.115454,72.539978,4137815735,"$6,328.84",49,4137815735
993d701868b23b2184de6813a8b2afd9,CHIMA OHAEGBULAM MD PC,125 PAKER HILL AVE,BOSTON,MA,21202,42.338551,71.018253,6177546420,"$8,137.08",63,6177546420
e3ee28a36512364fbebfc309d3a6be37,EYE HEALTH ASSOCIATES LLC,70 HUTTLESTON AVE,FAIRHAVEN,MA,27193,41.633619,70.871306,5089942020,"$7,620.44",59,5089942020
88b48efafd393f7aa5543d2c84465f71,ORTHOPAEDIC ASSOCIATES INC,1153 CENTRE ST,JAMAICA PLAIN,MA,21303,42.33196,71.020173,6175229461,"$3,745.64",29,6175229461
ef21bb44e85f3e178f496118113e820d,PCP59364,SPERRY CHIROPRACTIC OFFICE,EASTHAM,MA,26420,41.841572,69.988926,5082400700,"$3,745.64",29,5082400700
14a359e3f04a39b086135a1cb3f89e9e,PCP59371,109 COLON ST,BEVERLY,MA,19153,42.556659,70.84496,8608306357,"$4,778.92",37,8608306357
94d03dd229ee347c99e29a62181d5b10,PCP59870,955 MAIN ST,WINCHESTER,MA,18904,42.452752,71.144319,5083587241,"$4,908.08",38,5083587241
6e4e0ab8f77b3ea29f88c3804f9e3c20,CAPE ANN EYE SPECIALISTS P.C.,35 MIDDLE ST,GLOUCESTER,MA,19305,42.62885,70.685875,9782810600,"$7,620.44",59,9782810600
b2872674997c30cd862deeeb72a4a7bc,PCP60018,45 STERLING ST,WEST BOYLSTON,MA,15831,42.369417,71.785036,9789061753,"$3,616.48",28,9789061753
fa340249299032179d24d69a3c55b349,PCP60243,1000 MOHAWK TRL,SHELBURNE FALLS,MA,13709,42.609509,72.74698,4136256021,$774.96,6,4136256021
08ac2a19634839e4b621f29abe2fa5c4,LOWER CAPE CHIROPRACTIC SERVICES INC,169 RT,ORLEANS,MA,26533,41.76935,69.969034,5082555866,"$3,616.48",28,5082555866
4786ed549ddb3063b578370787aef828,PCP61278,52 NOON HILL AVE,NORFOLK,MA,20561,42.116244,71.329274,5085604007,"$2,841.52",22,5085604007
841c16ada4dd3d418227d8202c5699fa,WESTPORT CHIROPRACTIC INC,637 STATE RD,WESTPORT,MA,27902,41.579794,71.081822,5086795500,"$1,033.28",8,5086795500
f23d810e636a383db738548893a84c9a,PCP61989,1696 MASSACHUSETTS AVE,CAMBRIDGE,MA,21381,42.376043,71.11868,6175014488,"$4,908.08",38,6175014488
783421ae905a3082ae86cb958fffaa7c,GEMINI PHYSICAL THERAPY LLC,679 S MAIN ST,HAVERHILL,MA,18358,42.782945,71.087436,9783723211,"$6,587.16",51,9783723211
66e57e9578f438b9bd2e20fadbc2e34a,CHIROPRACTIC CARE CENTERS INC,503 ELECTRIC AVE,FITCHBURG,MA,14205,42.601977,71.81587,9783537716,"$9,041.20",70,9783537716
a40c8ae2043f3ac38da0dc75b6e7900b,PCP62693,1180 BEACON ST,BROOKLINE,MA,24463,42.323853,71.142003,6177340003,"$7,103.80",55,6177340003
87c6a47cdcb536f4a7dfc295d46b135c,PCP62815,10 MAPLE ST,MIDDLETON,MA,19499,42.610513,71.007118,9787773674,"$4,003.96",31,9787773674
8af39394b83c399db1dc56931ecf1ed8,PCP63416,11 E EMERSON ST,MELROSE,MA,21762,42.455723,71.059019,8885478785,"$1,033.28",8,8885478785
21ed1061d8093fa9a1bdbd0b1a108a41,BAY STATE EXCELLENT VISION,600 MAIN ST,MALDEN,MA,21483,42.42938,71.058706,7813216463,"$3,616.48",29,7813216463
c26db3695860357aab717023415a401b,SOUTH SHORE SKIN CENTER LLC,223 CHIEF JUSTICE CUSHING HWY,COHASSET,MA,20251,42.262428,70.798883,7813833340,"$7,491.28",58,7813833340
0ad49cb16abc34e1a94cea3050595660,PCP64655,48 SUMMER ST,WATERTOWN,MA,24723,42.369451,71.177925,6179265222,"$11,236.92",87,6179265222
8383a57610a537f697073c88bf1c9b9a,PCP64932,35 BEDFORD ST,LEXINGTON,MA,24204,42.445222,71.230015,7818611291,"$4,649.76",37,7818611291
7f568a78162636528748c1f22970e9ef,HAMPDEN PODIATRY ASSOCIATES,77 WINSOR ST,LUDLOW,MA,10563,42.183577,72.457812,4135897287,"$4,649.76",36,4135897287
159c3f19dc4834d09e19929a9959fcb5,PCP65131,751 FALL RIVER AVE,SEEKONK,MA,27715,41.839798,71.318047,5083360576,"$4,262.28",33,5083360576
a3d316afa15837b2bcc6b014ddb08fa9,PCP65288,339 WASHINGTON ST,DEDHAM,MA,20261,42.246872,71.179462,7813291159,"$6,716.32",52,7813291159
064f306429143e8a9965bab663a6f4d3,PCP65780,28 HIGH ST,GREENFIELD,MA,13012,42.614671,72.597063,41377319662,"$3,487.32",27,NA
5db9c9189e4d38bba94c2c031fcb6fb0,CRABBE CHIROPRACTIC INC,132 S MAIN ST,ACUSHNET,MA,27432,41.718217,70.901151,5089982800,"$5,037.24",39,5089982800
2f707b82d76c3a8096784b8fa4f2a665,NEUROLOGY AND REHABILITATION PC,300 MOUNT AUBURN ST,CAMBRIDGE,MA,21385,42.376043,71.11868,6178680880,"$4,649.76",36,6178680880
7c29cf463da739b3906c44efe4ba3c97,PCP66942,426 S ST,PITTSFIELD,MA,12018,42.45184,73.260685,4134969272,"$7,878.76",61,4134969272
8d8be980e91c3aa6a10cd2a598b6c5e7,PCP67111,900 ELM ST,WEST SPRINGFIELD,MA,10892,42.125451,72.649734,4137888900,"$6,458.00",50,4137888900
1323b753623b317799048829f1fc7ace,PCP67580,147 POWERS RD,SUDBURY,MA,17761,42.383367,71.42107,5086536518,"$2,195.72",17,5086536518
c1414e2c48df342892a4ac36114a2a45,ORTHOPEDIC AND SPORTS PHYSICAL THERAPY OF CAPE COD LLC,160 ROUTE 137,EAST HARWICH,MA,26451,41.708597,70.031856,7742370832,"$29,319.32",230,7742370832
9be53aecec1e3681bdc96fe0c25ec904,PCP67787,747 MAIN ST,CONCORD,MA,17423,42.462911,71.364496,9783697070,"$11,753.56",91,9783697070
3956291a3345394a958853b6aa6def35,PCP68037,1093 BEACON ST,BROOKLINE,MA,24465,42.323853,71.142003,6177392235,"$6,199.68",48,6177392235
d71ace90078739a4a8846b23118a7f11,PCP68244,18 MOORE ST,BELMONT,MA,24782,42.395317,71.180284,6174894888,"$3,616.48",28,6174894888
58fe18151e8a38eda91a17d4ef18c8d8,PCP68975,259 MAIN ST,ASHLAND,MA,17212,42.257755,71.473526,5088814368,"$12,399.36",96,5088814368
7fd1c5c42ca8345ab3d308f376656c65,FOREST PARK EYE CARE PC,453 SUMNER AVE,SPRINGFIELD,MA,11082,42.115454,72.539978,4137335155,"$9,170.36",71,4137335155
e482f4788c5b3b33a4a28c9368861673,PCP69671,67 CODDINGTON ST,QUINCY,MA,21694,42.261006,71.008988,6175220170,"$1,033.28",8,6175220170
33cc08748bc53233a2879436ac374724,PCP69704,540 MAIN ST,WEYMOUTH,MA,21901,42.206676,70.945845,7813406420,"$6,587.16",51,7813406420
4a52148e3f363c19896428263bf687d9,PCP69746,70 NEW OCEAN ST,SWAMPSCOTT,MA,19071,42.468059,70.89126,7815817300,"$3,874.80",30,7815817300
8b60711130ff3014bf433a9d61993538,CHAMPIONSHIP PHYSICAL THERAPY LLC,57 PUTNAM ST,WINTHROP,MA,21522,42.375541,70.970646,6178465609,"$3,745.64",29,6178465609
060f5b1356d03500bbb5008bcb8fe70a,PCP71080,43 COLUMBIA ST,BROOKLINE,MA,24462,42.323853,71.142003,6177308120,"$8,524.56",66,6177308120
a1bedf731a073f12b93d1c0aff4fdb8e,SAPERIA ORTHOPAEDICS AND SPORTS MEDICINE INC,72 WASHINGTON ST,TAUNTON,MA,27802,41.903324,71.094987,5088241824,"$10,074.48",78,5088241824
cad09f444aea35ba89795c7d7a11d340,PCP71398,344 HARVARD ST,BROOKLINE,MA,24462,42.323853,71.142003,6177345957,"$2,712.36",21,6177345957
eb202f89722d3e198085e5cbfe96c5ba,PCP72131,30 GORHAM ST,LOWELL,MA,18522,42.63898,71.321141,9784524223,"$3,487.32",27,9784524223
ea4b4b7985fe3b9282ca09d2e731c55b,BOSTON SPORTS MEDICINE INC,14 MCGRATH HWY,SOMERVILLE,MA,21434,42.390445,71.101033,6176236300,"$5,941.36",46,6176236300
d344c3cae7bd3da281e0f4ef43e0e4cf,PCP72310,10 LANGLEY RD,NEWTON CENTRE,MA,24591,42.331876,71.208402,6179696693,"$3,616.48",28,6179696693
c03afdc3c4da3d008916e4fde08e187c,PCP72513,817 MERRIMACK ST,LOWELL,MA,18543,42.63898,71.321141,9784587510,"$2,841.52",22,9784587510
df5a72fafb573a95b115665b3e2f0aa3,PCP72587,80 BOSTON TPKE,SHREWSBURY,MA,15453,42.284767,71.714228,5082177200,"$3,358.16",26,5082177200
eb41a4ecfbbe336c9987cae575551845,PCP72673,700 WASHINGTON ST,DEDHAM,MA,20264,42.246872,71.179462,7813298660,"$4,262.28",33,7813298660
47d8c4f0874d3180b9ef037a41f22a11,PCP73239,54 CLARK RD,BROOKLINE,MA,24456,42.323853,71.142003,6177313978,"$1,937.40",15,6177313978
529d130f9c513461ac4346c481038762,MICROSURGICAL EYE CONSULTANTS,31 CENTENNIAL DR,PEABODY,MA,19607,42.534279,70.969782,9785314400,"$4,003.96",31,9785314400
d588c607ff8f35a8ae27c5852ea362c6,PCP74240,200 N MAIN ST,EAST LONGMEADOW,MA,10282,42.062378,72.498111,4135257522,"$10,849.44",84,4135257522
308b225d285432ed9b01ee5fb2a8ecbf,PCP74257,21 EDISON AVE,MEDFORD,MA,21555,42.423844,71.109231,7813910780,"$4,649.76",36,7813910780
9b3c647e19a830179980cb3c0160f3d9,CHARLTON FAMILY PRACTICE,246 SOUTHBRIDGE RD,CHARLTEN,MA,15077,42.097282,72.055034,5082484801,"$6,974.64",54,5082484801
901b8ebef3383aa48cce5fe855e466c2,PCP74870,1200 CONVERSE ST,LONGMEADOW,MA,11061,42.047565,72.57113,4135676860,"$6,199.68",48,4135676860
4ca1bde984f1320d86dc39bf90ecdd19,PCP74995,311 B MAIN ST,WILLIAMSTOWN,MA,12672,42.695743,73.222118,4136521554,"$6,458.00",50,4136521554
a4d9807cee1c3cd694e5c46ffae90643,PCP75141,76 BEDFORD ST,LEXINGTON,MA,24204,42.445222,71.230015,3392230250,"$7,232.96",56,3392230250
35e71418a7ea36938ea36544d35784aa,PCP75285,654 WASHINGTON ST,BRAINTREE,MA,21845,42.205416,71.002168,7813564600,"$2,324.88",18,7813564600
9d274f9758603640a9859d831e33136e,BARRY S PAUL M.D.,480 LYNNFIELD ST,LYNN,MA,19041,42.474862,70.962185,7815993730,"$3,229.00",25,7815993730
e8d33a84cad5306a9982b011e4da175e,PCP77608,185 LINCOLN ST,HINGHAM,MA,20431,42.224319,70.880673,7817402349,"$11,495.24",90,7817402349
49a2c68361e9340a83b1180d87b01c03,PROFESSIONAL PHYSICAL THERAPY AND SPORTS MEDICINE INC,620 OLD W CENTRAL ST,FRANKLIN,MA,20382,42.084858,71.410571,5085286100,"$6,587.16",52,5085286100
fb28cf4c955b32c7906e4b9ad6f5678a,LC HOLBROOK INC.,169 N FRANKLIN ST,HOLBROOK,MA,23431,42.140346,70.997861,7817675200,"$6,199.68",49,7817675200
49ed83a0c4b43f289aa60058ce347992,READING CARDIOLOGY ASSOCIATES P.C.,21 MAIN ST,NORTH READING,MA,18642,42.578222,71.084398,9786644600,"$9,816.16",76,9786644600
09548a9170ff3bb38f61ee52f80665c2,PIONEER VALLEY OPHTHALMIC CONSULTANTS P.C.,10 HOSPITAL DR,HOLYOKE,MA,10406,42.211656,72.642448,4135363010,"$4,908.08",38,4135363010
a311cff8ee063573ba5a42e96e52b0fb,PCP80372,9 ALEXANDER AVE,BELMONT,MA,24784,42.395317,71.180284,6174848235,"$6,199.68",48,6174848235
6f30e0bcbef333e0a1f3400d919f7c59,PCP80741,23 VILLAGE INN RD,WESTMINSTER,MA,14731,42.5546,71.90544,9788756200,"$9,170.36",71,9788756200
82ee9d1054f532aa803a1c6f80f4d74c,PCP80867,241 PERKINS ST,JAMAICA PLAIN,MA,21304,42.33196,71.020173,6176999876,"$10,461.96",81,6176999876
6069f20487ec36e2a5f6da4a54993f39,PCP81196,20 TREMONT ST,DUXBURY,MA,23325,42.044307,70.706045,7819341599,"$8,395.40",65,7819341599
dd43257388bf3127bbdc0f03d81b5780,PCP81204,24 COURNOYER RD,WEST TISBURY,MA,2575,41.394406,70.656447,5086931300,"$9,816.16",77,5086931300
2fbb5641948c377497fa5bd1e5cd50df,PCP81276,127 WASHINGTON ST,NORWELL,MA,20611,42.164569,70.818844,7818782020,"$7,103.80",55,7818782020
9947a8a41b3e3f26b2d041755a71195f,DENTAL SURGEONS OF FALL RIVER PC,516 HAWTHORN ST,NORTH DARTMOUTH,MA,27473,41.646686,70.999158,5089920339,"$4,649.76",36,5089920339
f05dd4a68aa434de96d8ca02006cdf38,PCP82877,411 MAIN ST,YARMOUTH PORT,MA,26751,41.70692,70.221117,5082210241,"$11,107.76",86,5082210241
0507f525c04134d0b731f39f2b7239c0,PCP83022,32 E NORTHFIELD RD,NORTHFIELD,MA,13609,42.677091,72.453876,4137730009,"$5,424.72",43,4137730009
cec2cd996c3d3286b69233adf5f01285,MONTAGUE PSYCHOLOGICAL ASSOCIATES,356 MONTAGUE CITY RD,TURNERS FALLS,MA,13761,42.597445,72.555278,4137742981,"$4,262.28",33,4137742981
3b5067a836ad367cb73e2b6220a5f290,PCP83090,4 TANNERY BROOK ROW,SOMERVILLE,MA,21442,42.390445,71.101033,6177261736,"$3,874.80",30,6177261736
aeec578cddbe3241bddddb7f09806b4b,PCP83155,880 GREENDALE AVE,NEEDHAM,MA,24924,42.281593,71.242414,7814442266,"$4,649.76",36,7814442266
7f7c08c81c393b26bd345122a003dd91,PCP83180,107 FERRY ST,EVERETT,MA,21494,42.405938,71.054649,6173896951,"$8,395.40",65,6173896951
8ef7958da2f53c6a9e1bb629ad4cd528,DUFER LLC,235 CYPRESS ST,BROOKLINE,MA,24456,42.323853,71.142003,6178606430,"$5,295.56",41,6178606430
3c009a42ce07385984f6b909e51cf0d4,VISION SOURCE OF AMHERST AND GREENFIELD,22 UNIVERSITY DR,AMHERST,MA,10022,42.363534,72.507291,4135499400,"$7,232.96",56,4135499400
7136f05d6f143fedb3c5a5cf2a7ab12d,PCP84676,311 MAIN ST,WILLIAMSTOWN,MA,12672,42.695743,73.222118,4133203210,"$9,945.32",77,4133203210
5465c26c010a31f6b4e16cf2657fc6bc,PCP85981,800 WASHINGTON ST,NORWOOD,MA,20623,42.187364,71.195971,,"$7,620.44",59,NA
73d98ecb893d395ebb19fc3b685b3c57,NEW ENGLAND NEPHROLOGY ASSOCIATES,100 ROSEBROOK WAY,WAREHAM,MA,25711,41.76104,70.701779,5082911100,"$1,549.92",13,5082911100
4e5f721413e238d49f42c3568f26891c,PCP88008,101 INDEPENDENCE MALL WAY,KINGSTON,MA,23643,41.987196,70.741942,,"$2,454.04",20,NA
e31728d2e211354d9bb6798887761da5,PCP88738,9 MILL AND MAIN PL,MAYNARD,MA,17542,42.425955,71.456256,,"$7,878.76",61,NA
909a0f76d1bc3354a88382d002a29123,LYNNFIELD PSYCHOLOGICAL ASSOCIATES PC,180 MAIN ST,LYNNFIELD,MA,19402,42.534146,71.038333,7813342644,"$9,557.84",74,7813342644
9dd6b4882cc93383a46009a6523ce78c,WESTON PRIMARY CARE PC,56 COLPITTS RD,WESTON,MA,24931,42.360502,71.303433,7818910906,$774.96,7,7818910906
d32d804907fd36929c161915fd26afad,PCP89345,990 PARADISE RD,SWAMPSCOTT,MA,19071,42.468059,70.89126,,"$4,003.96",31,NA
14ef3da183433a2e901e9adc753b81b7,PCP90102,334 WALNUT ST EXT,AGAWAM,MA,1001,42.064731,72.653477,,"$3,099.84",24,NA
ea04cb4fa20f3ae3a93879a5ffb2cc86,PCP90191,142 SHIRLEY AVE,REVERE,MA,21513,42.421005,70.99036,,"$4,133.12",32,NA
5fe323f626da359d95297aeb672adc77,PCP90407,39 SALISBURY ST,WORCESTER,MA,16093,42.269478,71.807783,,"$10,849.44",85,NA
3785a91bef8c3628b6735f9808b05616,GL PEDIATRICS INC,33 BARTLETT ST,LOWELL,MA,18521,42.63898,71.321141,9784522200,"$8,912.04",69,9784522200
322bb3c4becf3394a42502f834a24721,PCP91863,3 WOODLAND RD,STONEHAM,MA,21801,42.474208,71.097665,,"$5,037.24",39,NA
6ad683e284013bfe9d9b4fa263d2d92f,PCP91959,4 CYPRESS ST,BROOKLINE,MA,24456,42.323853,71.142003,6176503522,"$12,399.36",96,6176503522
187674f48252314fa97cd80acf51d977,PCP92449,2 ALLEN ST,HAMPDEN,MA,10369,42.071188,72.417718,,"$9,170.36",71,NA
f716172ce9af3a5a8d69d55d1915ae6d,PCP92553,271 MAIN ST,STONEHAM,MA,21803,42.474208,71.097665,,"$2,970.68",23,NA
87f6941d90f63c1db4434038458cf8d7,PLATINUM PHYSICAL THERAPY INC.,15 W UNION ST,ASHLAND,MA,17211,42.257755,71.473526,5088816750,"$9,557.84",74,5088816750
4c01a1692a023b9e820ee13a7aba0c02,PCP92657,11 NEVINS ST,BRIGHTON,MA,21353,42.33196,71.020173,,"$3,099.84",24,NA
150aa5367e6334a38e88a5c266306a91,PCP92836,33 ELECTRIC AVE,FITCHBURG,MA,14207,42.601977,71.81587,,"$5,553.88",43,NA
686f49cfd7d63368b5549483b0f9f1cf,MORTON SURGICAL P.C.,72 WASHINGTON ST,TAUNTON,MA,27802,41.903324,71.094987,5088244535,"$3,874.80",31,5088244535
aef37af6e50036b8b89f873372229685,PCP93347,1 BROOKLINE PL,BROOKLINE,MA,24457,42.323853,71.142003,,"$5,424.72",42,NA
c10a84daabe03fca93d866f2f87232f7,DERMATOLOGY ASSOCIATES PC,128 CARNEGIE ROW,NORWOOD,MA,20625,42.187364,71.195971,7817625858,"$8,137.08",63,7817625858
f9d686d4013330a3ab7280c9e93921f4,PCP95496,169 N FRANKLIN ST,HOLBROOK,MA,23431,42.140346,70.997861,,"$5,424.72",42,NA
8e0ad255977a3d33b55346d6d6b7ff90,PCP95623,145 WARD HILL AVE,HAVERHILL,MA,18356,42.782945,71.087436,,"$4,649.76",37,NA
c0dab8285db53e9f8529cf7dd1d1ed33,PCP95658,99 4TH ST,CHELSEA,MA,21502,42.396824,71.031348,,"$7,749.60",61,NA
4e361f0ff13f34e7b7c06a3720887572,PCP96478,303 C HAVERHILL ST,ROWLEY,MA,19692,42.721495,70.886637,,"$6,070.52",47,NA
fcd15e93542d3d61873edf6dbf9e6090,PCP96615,955 MAIN ST,WINCHESTER,MA,18904,42.452752,71.144319,,"$3,745.64",29,NA
d141d0e1558a317e9bae6c1f1122f9d5,PCP97080,30 MAN MAR DR,PLAINVILLE,MA,27622,42.012797,71.336578,5086999417,"$5,166.40",40,5086999417
de36f40b6ae93c9c832779d800f086f0,PCP97489,300 W MAIN ST B,NORTHBOROUGH,MA,15321,42.323342,71.646236,,"$2,454.04",19,NA
b9f2379479ac34328ab09e0f67781595,PCP97493,706 ROGERS ST,LOWELL,MA,18524,42.63898,71.321141,,"$4,649.76",36,NA
b9b400f91c953d0eb6e415d5d33304f9,PCP97541,94 N ELM ST,WESTFIELD,MA,10851,42.138838,72.755911,,"$5,683.04",44,NA
a765c05eac8a391dbab93d70749cd6e8,PCP97604,585 LEBANON ST,MELROSE,MA,21763,42.455723,71.059019,7819793000,"$6,845.48",53,7819793000
b95e60e9ef173c9cbcd1612c5cd41e59,MOUNT AUBURN PATHOLOGISTS INC.,330 MOUNT AUBURN ST,CAMBRIDGE,MA,21385,42.376043,71.11868,6174995064,"$5,941.36",46,6174995064
3f6b47c8cace367c9d78c518c184365f,PCP100150,33 UNION ST,SOUTH WEYMOUTH,MA,21902,42.206676,70.945845,,"$3,487.32",27,NA
938dc1e4347e3b82aef0be7475ce9658,PCP100295,700 ATTUCKS LN,HYANNIS,MA,26011,41.647227,70.249978,,"$4,649.76",36,NA
6f72fdcc46a5330ab956d915dd5cbc0a,PCP102335,216 CENTRE ST,MALDEN,MA,21485,42.42938,71.058706,,"$11,366.08",88,NA
5181acd04c2631729068138966873eb6,PCP102671,22 W ST,MILLBURY,MA,15272,42.192246,71.777649,,"$9,041.20",70,NA
8d99f1214a713d6cb31b22665da28817,PCP102891,651 WASHINGTON ST,BROOKLINE,MA,24464,42.323853,71.142003,,"$5,166.40",40,NA
f6c2e17894693297aa75a4a5ff3d91c7,PCP103886,1501 MAIN ST,TEWKSBURY,MA,18762,42.612088,71.227845,,"$1,937.40",15,NA
cd0e3a9356933b3696c9204974f6d4fb,ORTHOPEDIC AND SPORTS PHYSICAL THERAPY LLP,260 TREMONT ST,BOSTON,MA,21165,42.338551,71.018253,6176365175,"$4,391.44",34,6176365175
7b1ba8950a48303f981df41766fcaacc,PCP105182,78 MCKAY ST,BEVERLY,MA,19153,42.556659,70.84496,9789272270,"$5,683.04",44,9789272270
1df56535d4b331928c2936f122fccab6,PCP105554,280 WASHINGTON ST,HUDSON,MA,17492,42.389071,71.545864,,"$8,653.72",67,NA
2a4518d870143404b2e91c30c76b6a12,OUTBACK PHYSICAL THERAPY INC.,149 A HIGHLAND AVE,SOMERVILLE,MA,21431,42.390445,71.101033,6177189300,"$5,037.24",39,6177189300
7048f2235fe73864a96eb9acc08cc8c7,PCP106281,141 BRIDGE RD,SALISBURY,MA,19522,42.844794,70.841499,,"$14,207.60",110,NA
eb39dca7a51b3f72a27689fb9f80002e,PCP106710,271 MAIN ST,EAST DOUGLAS,MA,15162,42.080784,71.715992,,"$4,778.92",37,NA
c4e4a284052a3c468ec872b88637bb74,PCP109289,28 MARKET ST,SWANSEA,MA,27773,41.758163,71.214181,,"$1,937.40",15,NA
294a9963a87f3504bb53e42c59f83552,PCP109620,33 UNION ST,WEYMOUTH,MA,21902,42.206676,70.945845,,"$9,687.00",75,NA
36df91728c2f325d9bf3b7f7338e474c,PCP109906,7 HADLEY ST,SOUTH HADLEY,MA,10751,42.256208,72.58103,,"$7,878.76",61,NA
641c80f25f383fe8ae8d1d96687c699a,REHAB RESOLUTIONS INC,627 COLLEGE HWY,SOUTHWICK,MA,10779,42.05257,72.777353,4138316167,"$11,624.40",90,4138316167
819cb4e2fb1c391780c9fdb705d2cd19,PCP110367,1575 CAMBRIDGE ST,CAMBRIDGE,MA,21384,42.376043,71.11868,6173495708,"$4,391.44",34,6173495708
c850347391ae381fb49edc633a30fb5a,PCP110373,510 CHAPMAN ST,CANTON,MA,20212,42.175737,71.125385,,"$2,712.36",22,NA
1d9793e4b13533d8b90e521cedb608cc,PCP110579,611 LEOMINSTER RD,LUNENBURG,MA,14622,42.582607,71.720464,,"$9,687.00",75,NA
ac29f176a8ad379c82504a5a1f8f2c23,CHAIR CITY FAMILY MEDICINE PC,250 GREEN ST,GARDNER,MA,14401,42.584206,71.988737,9786304455,"$1,937.40",16,9786304455
bcb26f1ba37d37dd8819c5dd6b6d9f74,PCP111254,22 PLEASANT ST,WEST BRIDGEWATER,MA,23791,42.021617,71.026717,,"$5,553.88",43,NA
a8232422e7ea3f919c32ea98c0c78835,PCP111351,329 CONWAY ST,GREENFIELD,MA,13011,42.614671,72.597063,,"$8,007.92",63,NA
42bab40f85863ff2820b5f70251d3068,PCP112017,1147 HANCOCK ST,QUINCY,MA,21694,42.261006,71.008988,,"$7,749.60",60,NA
67f862f09a483bf8a95bcde4979ae062,PCP112182,335 MAIN ST,SAUGUS,MA,19063,42.468432,71.013946,7812339570,"$7,620.44",59,7812339570
297e845b327b32f5a78d5885ab951c05,PCP112956,879 COUNTY ST,SOMERSET,MA,27265,41.738479,71.165065,,"$8,395.40",65,NA
1c9f06a838bb3d0799b2176d626bc4c2,PCP113281,111 WASHINGTON ST,PLAINVILLE,MA,27622,42.012797,71.336578,,"$14,078.44",109,NA
aeb088d2fff931faa081aef2d585e089,PCP113549,767 MAIN RD,WESTPORT,MA,27904,41.579794,71.081822,5086366331,"$4,133.12",32,5086366331
e7b1c64d6e4130d7bd3b5e171fbc7744,PCP113702,44 CHARLES ST,PITTSFIELD,MA,12013,42.45184,73.260685,,"$4,520.60",35,NA
d924220075883df08ff061a45b07c487,PCP114043,32 NYE AVE,ACUSHNET,MA,27432,41.718217,70.901151,,"$37,585.56",291,NA
8de13ae40690388eb0beebda7bbafc24,PCP114282,558 LINCOLN AVE,SAUGUS,MA,19063,42.468432,71.013946,,"$4,649.76",36,NA
40e2b4858b2137ebb61911c586ea7548,NEURO BEHAVIORAL CENTER LLC,420 MAIN ST,WALPOLE,MA,20813,42.146286,71.255604,5086601666,"$5,037.24",39,5086601666
18473570fa273388a25412325e3f4113,PCP114756,76 SUMMER ST,FITCHBURG,MA,14205,42.601977,71.81587,9783530004,"$5,683.04",44,9783530004
5445cc474b0f37a69223418b20a0693f,PCP115864,16 WINTER ST,SOUTHBOROUGH,MA,17451,42.299625,71.528427,,"$8,912.04",69,NA
00065b1c5e713da5907fe9fc33eddbbf,PCP115959,170 MAIN ST E,MONSON,MA,10571,42.093596,72.321494,,"$8,266.24",64,NA
c4fae5dced58338c8639d1967012ab27,PCP116246,104 MASSACHUSETTS AVE,ARLINGTON,MA,24748,42.418722,71.163912,,"$6,845.48",53,NA
ca857cf3cda43db3bb0962d836ac3f94,PCP116575,23 VILLAGE INN RD,WESTMINSTER,MA,14731,42.5546,71.90544,9788746200,"$4,391.44",34,9788746200
5fc5349f9ce7364c96ce9a27873204e3,PCP116640,35 MAIN ST,SAUGUS,MA,19062,42.468432,71.013946,7812331946,"$13,949.28",108,7812331946
c2c9a655efd636f5af9c3dd46c1f7a03,PCP116731,679 PLEASANT ST,PAXTON,MA,16121,42.311693,71.940282,,"$4,778.92",37,NA
a5207d31ad4438079b1903da35e04294,PCP118141,229 E MAIN ST,MILFORD,MA,17572,42.158692,71.521419,5084732501,"$6,070.52",47,5084732501
f33124ba95bf378a858becbf737c1334,PCP118611,126 PRESIDENT AVE,FALL RIVER,MA,27202,41.725351,71.094162,,"$6,328.84",49,NA
49bf581229f332c788de329eb3864885,PCP118875,627 COLLEGE HWY 2,SOUTHWICK,MA,10779,42.05257,72.777353,,"$3,745.64",29,NA
64a9eaf63eef3149988c3436d918d805,PCP119483,54 FAIRFIELD ST,CAMBRIDGE,MA,21401,42.376043,71.11868,,"$9,816.16",76,NA
0a7a71d0faaa3ac49b79de57a6d56f8f,PCP120560,121 BROAD ST,LYNN,MA,19011,42.474862,70.962185,,"$3,874.80",30,NA
476a629043dd32db872f9c7ad4f04d56,EXETER EYE ASSOCIATES LLC,159 SQUARE ONE MALL,SAUGUS,MA,19064,42.468432,71.013946,7812311535,"$4,778.92",37,7812311535
3e8fed1db0323042948e2a320b945649,PCP123140,922 WALHAM ST,LEXINGTON,MA,24218,42.445222,71.230015,,"$2,583.20",20,NA
42155e5d1678389ebf853af30a5700fa,PCP123154,512 MAIN ST,SHREWSBURY,MA,15456,42.284767,71.714228,,"$18,082.40",140,NA
ec2528f8b31331e381e9a3a4141ab99f,PCP123325,239 BOSTON,TOPSFIELD,MA,19832,42.641379,70.94344,,"$6,458.00",50,NA
1776755d70403d15b588d67de0149d76,PCP124300,5 CROWLEY RD,WESTHAMPTON,MA,10279,42.314078,72.777977,,"$4,520.60",36,NA
40dad8ea2b203ea589e02ddc0d51b3ce,PCP124741,299 CAREW ST,SPRINGFIELD,MA,11042,42.115454,72.539978,,"$2,970.68",23,NA
ed03dc2d0567339592df4c18d4993565,PCP127028,391 BROADWAY,EVERETT,MA,21490,42.405938,71.054649,,"$9,428.68",73,NA
7828e5ea1d0c3cb2a168cbca730c12ee,A PLUS CHIROPRACTIC MANAGEMENT INC,2360 CRANBERRY HWY,WEST WAREHAM,MA,25761,41.791736,70.757872,5082730190,"$23,507.12",182,5082730190
3fa14d94f5fe31e28d63df026c7b6a45,PCP128082,480 WASHINGTON ST,BRIGHTON,MA,21352,42.33196,71.020173,,"$14,465.92",112,NA
adf45009f41e30f1a7b5b9d2badf8acf,PCP128503,131 OLD RD TO NINE CORNER,CONCORD,MA,17424,42.462911,71.364496,,"$8,782.88",68,NA
e9e2998f97d33f888ee882660c5ddfce,PCP128586,2360 CRANBERRY HWY,W WAREHAM,MA,25761,41.748854,70.740536,,"$9,557.84",74,NA
83188445c0983b9d8223ef07041c1985,PCP129635,4 COURTHOUSE LANE,CHELMSFORD,MA,18241,42.597055,71.3697,,"$3,616.48",28,NA
3fe0fb59f52b33238fead05ccb31a177,PCP129774,250 SALEM ST,REVERE,MA,21511,42.421005,70.99036,,"$1,420.76",11,NA
0ac2db30f3cf3db9a0ac236e1b382b70,PCP129844,114 WHITWELL ST,QUINCY,MA,21691,42.261006,71.008988,6176395006,"$8,137.08",63,6176395006
bdbe5a2866cd37afb959ecb293bc6908,PCP130156,101 AMESBURY ST,LAWRENCE,MA,18401,42.700273,71.161357,,"$7,878.76",62,NA
127d0b28580b3171b52a7dd93083d1de,PCP130199,63 STATION LNDG,MEDFORD,MA,21555,42.423844,71.109231,,"$11,236.92",87,NA
de3b4863ef193d0c818ae0a7764d7011,PCP130455,500 W CUMMINGS PARK,WOBURN,MA,18016,42.488769,71.154438,,"$3,616.48",28,NA
1c33591ac3e13895862f84b61983199c,PCP131358,539 LINCOLN AVE,SAUGUS,MA,19063,42.468432,71.013946,,"$5,553.88",43,NA
cb5d94b162fd3d4cad075671936fd064,PCP131480,501 JOHN MAHAR HWY HIGHWAY3R,BRAINTREE,MA,21846,42.205416,71.002168,,"$4,520.60",35,NA
7ce4229cf2de3004898302dc9bf2f990,PCP131623,103 MYRON ST,WEST SPRINGFIELD,MA,10891,42.125451,72.649734,,"$11,107.76",86,NA
7af15bd812c4397b8018a1dd2c1085a7,PCP131692,199 REEDSDALE RD,MILTON,MA,21863,42.241557,71.082432,,"$8,137.08",63,NA
f03d4e07ce1f3cd8b66697fd4ecbe1de,PCP133007,78 BRICKYARD RD,ATHOL,MA,13312,42.575924,72.229618,,"$4,262.28",33,NA
a753da29339c30048a03fe9b98c04d80,PCP133043,8 WINCHESTER PL,WINCHESTER,MA,18902,42.452752,71.144319,7817296784,"$5,683.04",45,7817296784
934f4ea8157d3c1e806b7f8a9ec92a84,PCP133048,470 GRANBY RD,SOUTH HADLEY,MA,10753,42.256208,72.58103,,"$9,945.32",77,NA
04c749da634e3e9e9806a5052635370e,PCP133287,1592 GAR HWY,SOMERSET,MA,27261,41.738479,71.165065,,"$9,557.84",74,NA
2a1d6d3a985d31a994d47447457cf2b7,PCP134671,30 MAN MAR DR,PLAINVILLE,MA,27622,42.012797,71.336578,,"$7,878.76",61,NA
b36335326445333c82d2d2575d840abe,PCP134756,185 LINCOLN ST,HINGHAM,MA,20431,42.224319,70.880673,,"$7,362.12",57,NA
a7d7618397c6380493aa7919103d1c6c,BOSTON VISION WORKS INC,335 MAIN ST,SAUGUS,MA,19063,42.468432,71.013946,,"$6,458.00",50,NA
8b372f3b8269325b99c1b7e8b581ae34,PCP135256,61 LINCOLN ST,FRAMINGHAM,MA,17028,42.307905,71.436196,5088795040,"$4,003.96",31,5088795040
740b5dfb075d3b29805255d810031939,PCP135446,87 METACOMET ST,BELCHERTOWN,MA,10079,42.27901,72.400468,,"$10,332.80",80,NA
586d90ae775430c2996b9e62e75227d3,PCP136067,163 N MAIN ST,NORTH BROOKFIELD,MA,15351,42.267564,72.066876,,"$51,922.32",404,NA
34abc2c27cc93bfe88c53c8d941d2bdc,PCP136682,296 FALL RIVER AVE,SEEKONK,MA,27715,41.839798,71.318047,,"$2,841.52",22,NA
5f5140f3df3b3af2bc42a671fc6a5a28,PCP137171,17 N AVE,ROCKLAND,MA,23702,42.129251,70.908736,,"$12,528.52",97,NA
aca6c23750603d65bbc8e9fec0ee89bf,PCP137691,1245 MAIN ST,CHATHAM,MA,26331,41.621629,69.981956,5089458720,"$9,687.00",76,5089458720
fec69aaf68b934aa8f17f651ee67b771,PCP138116,2500 MAIN ST,TEWKSBURY,MA,18763,42.612088,71.227845,9786576009,"$11,236.92",87,9786576009
3278c48aaff03325ba4a5bb3eae5304c,NANCY LANDRY PLLC,1020 BROADWAY,SOMERVILLE,MA,21441,42.390445,71.101033,6176282160,"$3,874.80",30,6176282160
ed0add3544033e92b70289faaf2922bb,PCP138710,1017 TURNPIKE ST,CANTON,MA,20212,42.175737,71.125385,,"$4,391.44",34,NA
88e4e804522f3b0abd564668452dff5e,PCP139219,755 GRATTAN ST,CHICOPEE,MA,10201,42.175668,72.572257,,"$5,295.56",41,NA
cd78e27bc9fa314480b5c67a7bf4ceca,PCP139247,46 COLUMBIA RD,PEMBROKE,MA,23591,42.067804,70.805713,,"$3,229.00",25,NA
ee643956070736558c92eaed0ec0fb12,PCP139674,1122 RIVERSIDE AVE,SOMERSET,MA,27262,41.738479,71.165065,,"$3,229.00",25,NA
f28ce7cd867f343199e3ab62ed072852,PCP140496,454 BROADWAY,REVERE,MA,21513,42.421005,70.99036,,"$6,974.64",54,NA
3c05822a87913499b10e8c9d4e21a9ee,PCP140845,60 AUSTIN ST,NEWTONVILLE,MA,24601,42.331876,71.208402,,"$5,037.24",39,NA
cedd6b5c071e354dbdf17b95186ab530,PCP141059,30 LAFAYETTE SQ,HAVERHILL,MA,18324,42.782945,71.087436,,"$1,162.44",9,NA
edcb13d7e54736aa9e25aa4471a9a247,PCP141240,38 NEWBURY ST,BOSTON,MA,21163,42.338551,71.018253,,"$3,616.48",28,NA
1cf35b8cec813f61b8213b9bd05656ab,PCP141914,15 W ST,DOUGLAS,MA,15162,42.053072,71.752241,,"$3,874.80",30,NA
afab4f90745932eeb0e28098e831667d,PCP143030,21 MAIN ST,NORTH READING,MA,18642,42.578222,71.084398,9786641610,"$7,620.44",59,9786641610
3ed985878c4c33b49cbeec7fc451d2b6,PCP143874,242 JOHN WISE AVE,ESSEX,MA,19291,42.64042,70.771172,,"$5,166.40",40,NA
03196bec0c1935bcaf2fdbefb979cf6c,PCP144050,100 HIGHLAND ST,MILTON,MA,21863,42.241557,71.082432,6176960082,"$10,978.60",85,6176960082
8acdc9ed79b4378f9f2e73841f346a69,PCP144231,175 DWIGHT RD,LONGMEADOW,MA,11061,42.047565,72.57113,,"$1,033.28",8,NA
9e2804c2dd283eeba5fec24d79469ee2,DERMCARE PHYSICIANS AND SURGEONS LLC,27 VILLAGE SQ,CHELMSFORD,MA,18242,42.597055,71.3697,9782440060,"$2,583.20",20,9782440060
61b5df88742c3ed7aa4ec681665bf99a,PCP144578,630 BOSTON RD,BILLERICA,MA,18213,42.559673,71.260947,,"$6,587.16",51,NA
060d463135663d0492052827b0f87c2e,PCP144782,111 EVERETT AVE,CHELSEA,MA,21502,42.396824,71.031348,,"$22,861.32",179,NA
f14c80d1186a3f01b86c4c3d4c10b387,EYE ASSOCIATES OF SOMERVILLE INC.,174 BROADWAY,SOMERVILLE,MA,21453,42.390445,71.101033,6176661800,"$4,908.08",38,6176661800
200fda804f413747bfb45db70c2e3868,PCP144929,274 WESTFIELD ST,WEST SPRINGFIELD,MA,10892,42.125451,72.649734,,"$6,458.00",50,NA
e012865557c034a98c0db002a0467cbf,PCP145493,10 HOSPITAL DR,HOLYOKE,MA,10406,42.211656,72.642448,4135396830,"$3,874.80",30,4135396830
ccfa9a1ed0033997acd16f4b1c79b83c,NEW ENGLAND CONSULTANTS IN GASTROENTEROLOGY AND HEPATOLOGY PC,43 LINCOLN ST,FRAMINGHAM,MA,17028,42.307905,71.436196,5088720508,"$4,133.12",32,5088720508
100b141b3f51391697e3c6a74f0eda16,PCP146764,194 S MAIN ST,WEST BRIDGEWATER,MA,23791,42.021617,71.026717,,"$5,295.56",41,NA
87bdf820126a34188c78a818ad31027e,GEORGE P CHATSON MD PC,555 TURNPIKE ST,NORTH ANDOVER,MA,18455,42.673909,71.091334,9786871151,"$4,003.96",31,9786871151
8a6d61e9d47336a48d8611ce63e10a7c,PCP148569,47 ELM ST,DANVERS,MA,19232,42.574174,70.950516,,"$3,616.48",28,NA
71563592b6883ac08f7c58f804689ece,PCP148705,719 MAIN ST,OSTERVILLE,MA,26551,41.662727,70.357208,,"$3,745.64",29,NA
317b4c1104453de490797436349286e9,PCP148797,795 MAIN ST,HOLDEN,MA,15203,42.355801,71.862574,,"$7,232.96",56,NA
d7a5b4144f7339709816042c410874e2,PCP149158,40 E ST,LUDLOW,MA,10563,42.183577,72.457812,,"$2,454.04",19,NA
463296bc5a7c3412b888eec038ac8e1b,PCP149962,1748 GRAND ARMY HWY,SOMERSET,MA,27261,41.738479,71.165065,,"$7,232.96",56,NA
2a01f15ce34c3b5c850f7e4a965561d4,PCP150002,660 E ST,MANSFIELD,MA,20482,42.017302,71.21641,,"$4,003.96",31,NA
05466cb7f3c03bcd8f9e421e6547cb51,PCP150197,215 SUMMER ST,HAVERHILL,MA,18300,42.782945,71.087436,,"$7,749.60",60,NA
b84fd17071a93989bb5bb0810f6f5410,PCP150237,157 CTR BRIDGE RD,LANCASTER,MA,15232,42.483569,71.675585,,"$2,324.88",18,NA
e733e4f35172331ea76fb76596df4e09,PCP150845,26 STATE ST,LYNN,MA,19011,42.474862,70.962185,,"$4,003.96",31,NA
addb7e46903a307e8c93211a08d567e8,PCP151844,630 BALDWINVILLE RD,BALDWINVILLE,MA,14361,42.604845,72.078823,,"$1,679.08",13,NA
5bba1a73d276366481cad6057b5b19e5,MERCY FAMILY PRACTICE PC,250 GREEN ST,GARDNER,MA,14401,42.584206,71.988737,9786326445,"$4,262.28",33,9786326445
e8a5ea3a526137828a48fb72e328c3ba,PCP152351,116 CAMP ST,HYANNIS,MA,26013,41.647227,70.249978,,"$3,229.00",25,NA
d274fa4a665d3edfbbee4357bf9fcf7e,PCP152991,920 PLYMOUTH AVE,FALL RIVER,MA,27211,41.725351,71.094162,,"$3,874.80",30,NA
317d312a1945369ea181cc496adf48c9,PCP153719,301 DILLINGHAM AVE,FALMOUTH,MA,25403,41.594939,70.599243,,"$3,099.84",24,NA
f9953306dff0300d9b9d7535f1a4dc15,CARDIOLOGY ASSOCIATES OF GREATER LOWELL INC,33 BARTLETT ST,LOWELL,MA,18521,42.63898,71.321141,9784527000,"$4,908.08",38,9784527000
a2aa39312b4b321cb199d6efdecbd327,PCP155587,170 GOVERNORS AVE,MEDFORD,MA,21551,42.423844,71.109231,,"$2,324.88",18,NA
150d4becd11c3014881845127743725d,PCP155636,69 BAYVIEW AVE,BERKLEY,MA,27791,41.838061,71.077615,,"$3,874.80",30,NA
7dbf8d9dfc4739df9e54649d6eb4f8d3,PCP156597,77 WARREN ST,BRIGHTON,MA,21353,42.33196,71.020173,,"$7,232.96",56,NA
713ea03992743868ae432d2a7b74e334,PCP157187,50 TREMONT ST,MELROSE,MA,21762,42.455723,71.059019,,"$7,103.80",55,NA
9643bcaf1f4d3b2fb0ffb5d0cc319a47,PCP158387,1 CHARLES ST,DORCHESTER,MA,21221,42.33196,71.020173,,"$4,778.92",37,NA
f90cf2acd4283efaa2476c92373a5996,PCP159648,300 MOUNT AUBURN ST,CAMBRIDGE,MA,21385,42.376043,71.11868,6176610567,"$1,420.76",11,6176610567
a169e1666db03ae693acbfcba0271b9d,PCP159984,2034 A CENTRE ST,WEST ROXBURY,MA,21323,42.33196,71.020173,,"$8,912.04",69,NA
d824a1d091c13bf7984de1c489508e79,EYE EXAMS LLC,339 SQUIRE RD,REVERE,MA,21514,42.421005,70.99036,7812895900,"$3,616.48",28,7812895900
219754e0e5303e9da496987d1d7c8705,PCP161669,194 CENTRAL ST,SAUGUS,MA,19062,42.468432,71.013946,,"$3,874.80",30,NA
9cb9c46d64f43f519cbbf16b27e8b771,PCP161804,53 SPRINGFIELD ST,CHICOPEE,MA,10132,42.175668,72.572257,,"$4,778.92",37,NA
e20b66bce2393b8dbde9a3d60a4ea27d,PCP162061,81 B MAIN ST,MEDWAY,MA,20531,42.156203,71.430345,,"$2,712.36",21,NA
39f0d0e7798c39cbb2d373f6cb7dfed4,PCP162430,48 CONGRESS ST,SALEM,MA,19705,42.499248,70.898204,,"$5,683.04",44,NA
5e9cb3b5e58638b7b6215eac9a6aec60,PCP162896,130 CORPORATE PARK DR,PEMBROKE,MA,23591,42.067804,70.805713,,"$8,266.24",64,NA
4a1c5788d5c93306a691d5ab7725c49d,PCP163305,1333 MAIN ST,WALPOLE,MA,20811,42.146286,71.255604,,"$14,724.24",114,NA
a06c5c41c336351e973e56695f62e9b8,PCP163421,68 DEAN ST,TAUNTON,MA,27802,41.903324,71.094987,,"$9,041.20",70,NA
58d84f96f70c3aadb0a5c4ee5bad9c70,PCP164158,348 N PEARL ST,BROCKTON,MA,23012,42.082543,71.024638,,"$3,616.48",28,NA
0471e04573e13540a5e8dbef0d4093b6,PCP164843,113 /2 MAIN ST,OXFORD,MA,15402,42.12826,71.8671,,"$5,812.20",45,NA
f3b7381743cb37628353bcfb64aa9b10,PCP166078,120 STOCKWELL DR,AVON,MA,23221,42.132461,71.054013,5082324012,"$9,299.52",72,5082324012
91889eee22a83d9a8e1d3e55784a21f0,PCP166478,6 COURTHOUSE LN,CHELMSFORD,MA,18241,42.597055,71.3697,,"$5,295.56",41,NA
2c3e6615030f35a7aeb4f32bbb83af26,PCP166560,150 BRYN MAWR AVE,AUBURN,MA,15011,42.198708,71.846006,,"$5,812.20",45,NA
db6bd9cc7e0931e3bc027138105c7661,PCP166697,172 COUNTY ST,SOMERSET,MA,27264,41.738479,71.165065,,"$7,103.80",55,NA
24bcfc89997e3a62a6c383ed31af8901,PCP167180,22 MCGRATH HWY 4,SOMERVILLE,MA,21434,42.390445,71.101033,,"$6,070.52",47,NA
616aa60c03643315ae167133ae5181bd,PCP167233,336 MAIN ST,WAKEFIELD,MA,18805,42.50436,71.064061,,"$11,236.92",88,NA
3c8b233a6c053357b6e097306efcf971,PCP167629,54 MAPLE AVE B,RUTLAND,MA,15431,42.388285,71.969865,,"$12,528.52",97,NA
9dbb19ccead33b8c9a02430632d7dade,ORTHOPEDIC AND SPORTS PHYSICAL THERAPY LLP,161 COLLEGE AVE,MEDFORD,MA,21555,42.423844,71.109231,6176275102,"$7,362.12",57,6176275102
75bc27b328413c4f906913bed81bfa6c,PCP168395,181 STATE RD,WHATELY,MA,1093,42.430995,72.642437,,"$19,632.32",153,NA
9b43764129ee37a999edcb224f28bc09,PCP168999,3 FRANKLIN CMNS,FRAMINGHAM,MA,17026,42.307905,71.436196,5088798388,"$3,616.48",28,5088798388
822a6b9fda153cc48436ab61474f19fd,PCP169859,55 HOSPITAL DR,WINCHENDON,MA,14751,42.66816,72.055644,9782972311,"$17,436.60",135,9782972311
8e7be35dc07f300cbd19ffd1933e3e8f,POSTUM EYE CARE INC,100 VALLEY PKWY,WHITINSVILLE,MA,15881,42.119228,71.671822,5082344678,"$7,749.60",60,5082344678
b4ad3a53b0803f709395fdffd3ef2c9e,URGENT CARE SPECIALISTS PC,2040 BOSTON RD,WILBRAHAM,MA,10951,42.126883,72.430952,4135993800,"$2,712.36",21,4135993800
2d9ae0d5a47733aeb0f210a76a0dec27,PCP170662,75 MIDDLESEX TPKE,BURLINGTON,MA,18035,42.503227,71.201713,6177211938,"$6,070.52",47,6177211938
f43ccb73d2833d3190d358e65ef30d0b,ADULT AND PEDIATRIC DERMATOLOGY P.C.,340 MAPLE ST,MARLBORO,MA,17523,42.349617,71.547214,5084609613,"$7,620.44",59,5084609613
c7459800e42b3144a93459585c9eacff,PCP170967,1111 ELM ST,WEST SPRINGFIELD,MA,10891,42.125451,72.649734,4132210546,"$10,978.60",85,4132210546
84bdd93a847e3a6aa121b47247198077,HARBOR MEDICAL ASSOCIATES INC.,541 MAIN ST,S WEYMOUTH,MA,21901,42.206676,70.945845,7819521433,"$3,358.16",26,7819521433
2acd3148fcd730928cac60cafaeea43e,PCP171542,189 CHURCH ST,CARLISLE,MA,17411,42.53662,71.361832,9783695093,"$4,003.96",31,9783695093
f6c2b64df11f34728fbdd51b47f00987,WINCHESTER HOSPITAL,41 HIGHLAND AVE,WINCHESTER,MA,18901,42.452752,71.144319,7817299000,"$2,324.88",18,7817299000
f75d0f64ce0e3e3796714d29d4ed8c81,PCP171884,17 BROWNE ST,BROOKLINE,MA,24463,42.323853,71.142003,6177396591,$258.32,2,6177396591
c70f789ae2443048bbb7c786d3f5de9b,BICKFORD HEALTH ASSOCIATES PC,714 MAIN ST,YARMOUTH PORT,MA,26752,41.70692,70.221117,5083621600,"$7,491.28",58,5083621600
3ce346d89c09302f8028bc24362d6074,PCP172042,7 SIGOURNEY ST,OXFORD,MA,15401,42.12826,71.8671,5089873200,"$6,458.00",50,5089873200
32a3df5242fa34f3971b5e0e24abf3d3,DR KAREN RUSKIN AND ASSOCIATES INC,36 S MAIN ST,SHARON,MA,20671,42.108463,71.185182,7818060913,"$4,649.76",36,7818060913
7638b2b1dbae3cf5bd72676b736b7c87,STREFF ASSOCIATES LLC,132 GREAT RD,STOW,MA,17751,42.429688,71.512514,97826304395,"$16,919.96",131,NA
618121e5675e3efc80a2e6aac5a65ed1,FACIAL COSMETIC AND MAXILLOFACIAL SURGERY P.C.,382 N MAIN ST,EAST LONGMEADOW,MA,10281,42.062378,72.498111,4135250100,"$3,616.48",28,4135250100
e31b013c5d2239049b9cae8f1ce5690e,CONNECTICUT VALLEY ORAL SURGERY ASSOCIATES PC,285 HIGH ST,GREENFIELD,MA,13012,42.614671,72.597063,4137742961,"$9,428.68",73,4137742961
e0ca0c698ba435e5aa72ea06997ed383,HILLTOWN COMMUNITY HEALTH CENTERS INC,58 OLD N RD,WORTHINGTON,MA,1098,42.397559,72.943392,4132385511,"$13,303.48",103,4132385511
dea603e31eca34aca7b9566138fc878b,GATEWAY PHYSICAL THERAPY AND WELLNESS CORP,80 RUN WAY,LEE,MA,12389,42.303174,73.233924,4132433477,$904.12,7,4132433477
7596f38cd46c3be1b263c676a4f3fe5f,URGENT CARE SPECIALISTS PC,5 SHREWSBURY ST,HOLDEN,MA,15201,42.355801,71.862574,5088293800,"$14,078.44",109,5088293800
16d9980210913c8eaa5c11bba4042e65,HARBOR MEDICAL ASSOCIATES INC.,56 NEW DRIFTWAY,SCITUATE,MA,20664,42.205062,70.742978,7815457243,"$7,491.28",58,7815457243
3d4699275cdd38a3966a02cdcf03e42b,ACO HEALTH SOLUTIONS LLC,85 E MAIN ST,FALL RIVER,MA,27243,41.725351,71.094162,7749927058,"$5,037.24",39,7749927058
d90869a606dc31dfb4cae879d143ad44,ORTHOPAEDIC SPECIALISTS OF MASSACHUSETTS PC,825 WASHINGTON ST,NORWOOD,MA,20623,42.187364,71.195971,7817696720,"$4,520.60",35,7817696720
ad18df0829583f21a5aff62a276ff31f,PCP177981,323 BOSTON POST RD,SUDBURY,MA,17763,42.383367,71.42107,9784409404,"$4,133.12",32,9784409404
0eb6a07b1d9c3545b850b165646462ba,PCP178064,32 S MAIN ST,RANDOLPH,MA,23684,42.178993,71.052654,,"$3,874.80",30,NA
35763b9063ab3c6a895a8c83bfa6bd3c,PCP178557,146 MAIN ST,NORFOLK,MA,20561,42.116244,71.329274,,"$8,266.24",64,NA
0508f565d97034cc93a2ed6d56fd69e3,PCP178883,49 STATE RD,NORTH DARTMOUTH,MA,27473,41.646686,70.999158,,"$10,461.96",81,NA
9869c919f57b3661a2a066448f9c2db1,NORTHAMPTON RADIOLOGIC ASSOCIATES INC.,70 MAIN ST,FLORENCE,MA,10621,42.327044,72.67463,4137746301,"$8,782.88",68,4137746301
f3889d60e191383e950dcd066aa9780a,PCP179681,500 CONGRESS ST,QUINCY,MA,21690,42.261006,71.008988,6174723137,"$2,970.68",23,6174723137
d0bf7c574f7c3ff3899514f5736df59f,PCP179871,4 W PARISH COURT,HAVERHILL,MA,18321,42.782945,71.087436,9787581177,"$3,099.84",25,9787581177
8d44fa5a815e3ec99764b2ab13e694ea,PCP180186,21 A ST,BURLINGTON,MA,18033,42.503227,71.201713,7812299505,"$5,941.36",46,7812299505
b676de67931a3be2b6c088a269627545,BEVERLY RADIOLOGY ASSOCIATES INC.,2 BLACKBURN PLACE,GLOUCESTER,MA,1930,42.62885,70.685875,9782811500,"$1,291.60",10,9782811500
0dbd13c7d59a34158e4b070d3f356867,STEWARD ST. ELIZABETH'S MEDICAL CENTER OF BOSTON INC.,77 WARREN ST 1ST FLOOR AND 2ND FLOOR,BRIGHTON,MA,21353,42.33196,71.020173,6175625200,"$3,616.48",28,6175625200
2969739bbdaa358a8238b68226093f51,MT. AUBURN CARDIOLOGY ASSOCIATES INC.,725 CONCORD AVE,CAMBRIDGE,MA,21381,42.376043,71.11868,6174971123,"$3,745.64",29,6174971123
ddc1c390e655389aaf24e55ec92f0eff,CENTER FOR PSYCHIATRIC MEDICINE PC,290 MERRIMACK ST,LAWRENCE,MA,18431,42.700273,71.161357,9786858800,"$6,199.68",48,9786858800
4d28062f5fc83a67a85e26f5bef05e34,WACHUSETT RADIOLOGY INC,242 GREEN ST,GARDNER,MA,14401,42.584206,71.988737,9786306235,"$4,908.08",38,9786306235
6b7dc4b8cbae3e459d328224ca678b8c,DEDHAM OPHTHALMIC CONSULTANTS AND SURGEONS PC,980 990 WASHINGTON ST,DEDHAM,MA,20266,42.246872,71.179462,7812552222,"$8,007.92",62,7812552222
48d938e00ed334bc97fe1824dc0b5e78,DR. STEVEN M. BELANGER P.C.,1030 PRESIDENT AVE,FALL RIVER,MA,27205,41.725351,71.094162,5082356204,"$3,616.48",28,5082356204
f576aee3a6403b7285de0294c44bf0e4,PCP185525,1732 MAIN ST,CONCORD,MA,17423,42.462911,71.364496,,"$3,745.64",29,NA
5c0284350cca3c7bb49742878304f48e,PCP185772,WILLIAM R NOLAN JR DC,DANVERS,MA,1923,42.574174,70.950516,,"$8,912.04",69,NA
4bac2e3e0bdd3916b5a8f175fa5c80d1,BROCKTON AREA MULTISERVICES INC.,288 BEDFORD ST,WHITMAN,MA,23821,42.078974,70.93939,7814476425,"$12,011.88",93,7814476425
07528ac594f7352db3e2fd7269c88baa,HD PHYSICAL THERAPY LLC,607 N AVE,WAKEFIELD,MA,18801,42.50436,71.064061,7815870776,"$7,103.80",55,7815870776
c3c463d8c74a3b85915b8e4356df2ee7,COMMONWEALTH PATHOLOGY PARTNERS PC,500 LYNNFIELD ST,LYNN,MA,19041,42.474862,70.962185,7814773454,"$6,458.00",50,7814773454
09aafb688363327fb033a690de7a2930,NEW ENGLAND INPATIENT SPECIALIST LLC,2033 MAIN ST,ATHOL,MA,13313,42.575924,72.229618,9786695620,"$5,424.72",42,9786695620
8644614a63033dd9af35721d16154a37,PCP187431,92 MONTVALE AVE,STONEHAM,MA,21803,42.474208,71.097665,,"$1,162.44",9,NA
242e5bbe87a73a1588478ff68aba0c09,DALTON MEDICAL ASSOCIATES LLP,33 N ST,DALTON,MA,12261,42.479819,73.153776,4136842110,"$3,099.84",24,4136842110
f764c74771473337b677a6042ab63268,PCP189356,817 MERRIMACK ST,LOWELL,MA,18543,42.63898,71.321141,,"$6,458.00",50,NA
e8c5ab6ad57f3e04bba882041d34434c,PCP189838,72 WASHINGTON ST,TAUNTON,MA,27802,41.903324,71.094987,,"$6,199.68",48,NA
2263784732633a7280151e6345ffb62c,PCP190607,77 POND AVE,BROOKLINE,MA,24457,42.323853,71.142003,,"$6,328.84",49,NA
8e023628af4e328c96479074c707396c,PCP191244,124 WATERTOWN ST,WATERTOWN,MA,24722,42.369451,71.177925,6179232323,"$5,683.04",44,6179232323
cd3002753f4d3adb98aa4e5bba25be24,PCP191696,990 PARADISE RD,SWAMPSCOTT,MA,19071,42.468059,70.89126,7815997802,"$4,003.96",31,7815997802
175224dd507732bba1c88ee94e699f71,NEW ENGLAND SPINE CARE ASSOCIATES LLC,799 CONCORD AVE,CAMBRIDGE,MA,21381,42.376043,71.11868,6175477163,"$2,324.88",18,6175477163
3d879520441039af954010b7a5bea964,PCP193003,35 BROOKFIELD RD,DOVER,MA,20301,42.23416,71.291167,,"$6,587.16",51,NA
176a6fd869ff3a5088f390c7e88ef927,MILTON RADIOLOGISTS INC,199 REEDSDALE RD,MILTON,MA,21863,42.241557,71.082432,6176964600,"$7,232.96",56,6176964600
6cfa7674b2873f6295970ec016b98dd6,PCP193913,115 LINCOLN ST,FRAMINGHAM,MA,17026,42.307905,71.436196,5083831563,"$9,041.20",70,5083831563
c56c7dcbc0003191ab3d58cde7944278,PCP195001,46 TOLL RD B,SALISBURY,MA,19521,42.844794,70.841499,,"$1,162.44",9,NA
0e7998ebcf993b1093814b3f4bf4d320,COMMUNITY HEALTHLINK INC,275 NICHOLS RD,FITCHBURG,MA,14201,42.601977,71.81587,9784013970,"$7,749.60",60,9784013970
